CD_OSCAR,DC_NOME,FL_CAPITAL,DT_FIM_OPERACAO,CD_SITUACAO,TP_ESTACAO,VL_LATITUDE,CD_WSI,CD_DISTRITO,VL_ALTITUDE,SG_ESTADO,CD_ESTACAO,VL_LONGITUDE,DT_INICIO_OPERACAO
0-2000-0-86765,ABROLHOS,N,0.0,Pane,Automatica,-17.96305555,0-76-0-2906907000000408,4,20.93,BA,A422,-38.70333333,2008-07-20
0-2000-0-81755,ACARAU,N,0.0,Operante,Automatica,-3.1211111,0-76-0-2300200000000446,3,67.15,CE,A360,-40.08722221,2009-04-21
0-2000-0-86827,AFONSO CLAUDIO,N,0.0,Pane,Automatica,-20.10416666,0-76-0-3200102000000478,6,507.48,ES,A657,-41.10694444,2011-09-23
0-2000-0-86686,AGUA BOA,N,0.0,Operante,Automatica,-14.01638888,0-76-0-5100201000000157,9,440.0,MT,A908,-52.21166666,2006-12-15
0-2000-0-86812,AGUA CLARA,N,0.0,Operante,Automatica,-20.44444444,0-76-0-5000203000000463,7,323.63,MS,A756,-52.87583332,2010-08-13
0-2000-0-86716,AGUAS EMENDADAS,N,0.0,Operante,Automatica,-15.596491,0-76-0-5300108000000435,10,1030.36,DF,A045,-47.625801,2008-10-02
0-2000-0-86722,AGUAS VERMELHAS,N,0.0,Operante,Automatica,-15.75166666,0-76-0-3101003000000252,5,754.07,MG,A549,-41.45777777,2007-09-08
0-2000-0-86803,AIMORES,N,0.0,Operante,Automatica,-19.53277777,0-76-0-3101102000000239,5,287.74,MG,A534,-41.09083333,2007-08-04
0-2000-0-86828,ALEGRE,N,0.0,Operante,Automatica,-20.75055555,0-76-0-3200201000000125,6,138.0,ES,A617,-41.48888888,2006-10-24
0-2000-0-86975,ALEGRETE,N,0.0,Operante,Automatica,-29.70916666,0-76-0-4300406000000113,8,120.88,RS,A826,-55.52555554,2006-09-27
0-2000-0-86829,ALFREDO CHAVES,N,0.0,Pane,Automatica,-20.63638888,0-76-0-3200300000000135,6,14.19,ES,A615,-40.74194444,2006-11-02
0-2000-0-86627,ALMAS,N,0.0,Operante,Automatica,-11.28416666,0-76-0-1700400000000508,10,503.0,TO,A053,-47.21222222,2016-03-31
0-2000-0-86743,ALMENARA,N,0.0,Operante,Automatica,-16.16666666,0-76-0-3101706000000034,5,189.11,MG,A508,-40.68777777,2002-12-14
0-2000-0-81977,ALTA FLORESTA,N,0.0,Operante,Automatica,-10.07722221,0-76-0-5100250000000192,9,291.85,MT,A924,-56.17916666,2007-05-22
0-2000-0-81738,ALTAMIRA,N,0.0,Operante,Automatica,-3.26999999,0-76-0-1500602000000585,2,191.0,PA,A253,-52.39472221,2018-10-24
0-2000-0-86749,ALTO ARAGUAIA,N,0.0,Operante,Automatica,-17.33944444,0-76-0-5100300000000477,9,753.28,MT,A909,-53.22444443,2011-09-21
0-2000-0-86691,ALTO PARAISO DE GOIAS,N,0.0,Operante,Automatica,-14.13305554,0-76-0-5200605000000208,10,1264.7,GO,A024,-47.52333332,2007-06-03
0-2000-0-81985,ALTO PARNAIBA,N,0.0,Operante,Automatica,-9.10833333,0-76-0-2100501000000375,2,283.69,MA,A223,-45.93194443,2008-06-02
0-2000-0-86750,ALTO TAQUARI,N,0.0,Operante,Automatica,-17.8411111,0-76-0-5100607000000284,9,862.42,MT,A934,-53.28944444,2008-01-28
0-2000-0-81846,ALVORADA DO GURGUEIA,N,0.0,Operante,Automatica,-8.37638888,0-76-0-2202307000000274,3,225.0,PI,A336,-43.85944444,2007-11-16
0-2000-0-86894,AMAMBAI,N,0.0,Operante,Automatica,-23.0025,0-76-0-5000609000000381,7,433.59,MS,A750,-55.32944443,2008-06-10
0-2000-0-86675,AMARGOSA,N,0.0,Operante,Automatica,-13.00944444,0-76-0-2901007000000398,4,397.8,BA,A434,-39.61694443,2008-07-10
0-2000-0-81867,ANGICAL DO PIAUI,N,0.0,Pane,Automatica,-6.08944444,0-76-0-2200608000000597,3,183.0,PI,A377,-42.72749999,2019-11-13
0-2000-0-84817,ANGRA DOS REIS,N,0.0,Operante,Automatica,-22.97555554,0-76-0-3300100000000555,6,6.0,RJ,A628,-44.30333333,2017-08-24
0-2000-0-81976,APIACAS,N,0.0,Operante,Automatica,-9.56333333,0-76-0-5100805000000123,9,217.75,MT,A910,-57.3936111,2006-10-23
0-2000-0-81835,APODI,N,0.0,Operante,Automatica,-5.62666666,0-76-0-2401008000000272,3,131.41,RN,A340,-37.815,2007-11-13
0-2000-0-81893,APUI,N,0.0,Operante,Automatica,-7.20555555,0-76-0-1300144000000406,1,156.97,AM,A113,-59.8886111,2008-07-18
0-2000-0-86808,AQUIDAUANA,N,0.0,Operante,Automatica,-20.47555554,0-76-0-5001102000000132,7,151.35,MS,A719,-55.78388888,2006-10-31
0-2000-0-86616,ARACAJU,N,0.0,Operante,Automatica,-10.9525,0-76-0-2800308000000055,4,3.72,SE,A409,-37.05444444,2003-02-11
0-2000-0-86746,ARACUAI,N,0.0,Operante,Automatica,-16.84888888,0-76-0-3103405000000548,5,308.0,MG,A566,-42.03527777,2017-05-18
0-2000-0-86709,ARAGARCAS,N,0.0,Operante,Automatica,-15.90277777,0-76-0-5201702000000229,10,327.35,GO,A013,-52.24527777,2007-07-12
0-2000-0-86648,ARAGUACU,N,0.0,Pane,Automatica,-12.59222221,0-76-0-1702000000000502,10,231.0,TO,A054,-49.5286111,2015-08-18
0-2000-0-81900,ARAGUAINA,N,0.0,Operante,Automatica,-7.10388888,0-76-0-1702109000000172,10,230.76,TO,A021,-48.20111111,2007-01-25
0-2000-0-81821,ARAGUATINS,N,0.0,Operante,Automatica,-5.6436111,0-76-0-1702208000000443,10,130.71,TO,A044,-48.11194444,2009-03-11
0-2000-0-81996,ARAPIRACA,N,0.0,Operante,Automatica,-9.80444444,0-76-0-2700300000000353,3,236.84,AL,A353,-36.61916666,2008-04-26
0-2000-0-86971,ARARANGUA,N,0.0,Operante,Automatica,-28.931353,0-76-0-4201406000000433,8,2.0,SC,A867,-49.49792,2008-09-27
0-2000-0-86796,ARAXA,N,0.0,Operante,Automatica,-19.60583333,0-76-0-3104007000000037,5,1018.32,MG,A505,-46.94972221,2002-12-18
0-2000-0-81953,ARCO VERDE,N,0.0,Operante,Automatica,-8.4336111,0-76-0-2601201000000068,3,683.95,PE,A309,-37.05555555,2004-11-19
0-2000-0-81877,AREIA,N,0.0,Operante,Automatica,-6.975451,0-76-0-2501104000000066,3,573.45,PB,A310,-35.718128,2004-11-15
0-2000-0-81970,ARIQUEMES,N,0.0,Operante,Automatica,-9.94888888,0-76-0-1100023000000405,9,128.44,RO,A940,-62.96194444,2008-07-17
0-2000-0-86841,ARIRANHA,N,0.0,Operante,Automatica,-21.13305554,0-76-0-3503703000000271,7,525.44,SP,A736,-48.84055555,2007-11-12
0-2000-0-86892,ARRAIAL DO CABO,N,0.0,Operante,Automatica,-22.97527777,0-76-0-3300258000000108,6,5.0,RJ,A606,-42.02138888,2006-09-21
0-2000-0-81732,AUTAZES,N,0.0,Operante,Automatica,-3.58333333,0-76-0-1300300000000339,1,19.9,AM,A120,-59.12944443,2008-04-16
0-2000-0-86904,AVARE,N,0.0,Operante,Automatica,-23.10166666,0-76-0-3504503000000107,7,776.36,SP,A725,-48.9411111,2006-09-21
0-2000-0-81790,BACABAL,N,0.0,Operante,Automatica,-4.24305555,0-76-0-2101202000000394,2,22.33,MA,A220,-44.79499999,2008-07-08
0-2000-0-86992,BAGE,N,0.0,Operante,Automatica,-31.34777777,0-76-0-4301602000000166,8,226.19,RS,A827,-54.01333333,2007-01-03
0-2000-0-81947,BAIXA GRANDE DO RIBEIRO,N,0.0,Operante,Automatica,-8.333531,0-76-0-2201150000000578,3,519.0,PI,A375,-45.094625,2018-03-22
0-2000-0-81903,BALSAS,N,0.0,Operante,Automatica,-7.45555555,0-76-0-2101400000000260,2,271.03,MA,A204,-46.02749999,2007-10-25
0-2000-0-86806,BAMBUI,N,0.0,Operante,Automatica,-20.0311111,0-76-0-3105103000000534,5,697.0,MG,A565,-46.00888888,2016-11-22
0-2000-0-86850,BARBACENA,N,0.0,Operante,Automatica,-21.22833332,0-76-0-3105608000000026,5,1168.76,MG,A502,-43.76777777,2002-12-04
0-2000-0-81911,BARBALHA,N,0.0,Operante,Automatica,-7.30083333,0-76-0-2301901000000202,3,409.41,CE,A315,-39.2711111,2007-05-30
0-2000-0-81648,BARCELOS,N,0.0,Operante,Automatica,-0.98722221,0-76-0-1300409000000344,1,29.88,AM,A128,-62.92416666,2008-04-18
0-2000-0-86634,BARRA,N,0.0,Operante,Automatica,-11.08472221,0-76-0-2902708000000362,4,407.5,BA,A429,-43.13888888,2008-05-11
0-2000-0-86867,BARRA BONITA,N,0.0,Operante,Automatica,-22.4711111,0-76-0-3505302000000348,7,533.68,SP,A741,-48.5575,2008-04-23
0-2000-0-81825,BARRA DO CORDA,N,0.0,Pane,Automatica,-5.50666666,0-76-0-2101608000000304,2,154.19,MA,A221,-45.23694444,2008-03-05
0-2000-0-86922,BARRA DO TURVO,N,0.0,Operante,Automatica,-24.96277777,0-76-0-3505401000000393,7,659.89,SP,A746,-48.41638888,2008-07-02
0-2000-0-86652,BARREIRAS,N,0.0,Operante,Automatica,-12.12472221,0-76-0-2903201000000018,4,474.17,BA,A402,-45.02694443,2001-12-19
0-2000-0-86816,BARRETOS,N,0.0,Operante,Automatica,-20.55916666,0-76-0-3505500000000460,7,534.36,SP,A748,-48.54499999,2010-06-18
0-2000-0-86908,BARUERI,N,0.0,Operante,Automatica,-23.52388888,0-76-0-3510609000000470,7,776.5,SP,A755,-46.86944443,2011-03-28
0-2000-0-86837,BATAGUASSU,N,0.0,Operante,Automatica,-21.75,0-76-0-5001904000000492,7,392.13,MS,A759,-52.47138888,2013-03-20
0-2000-0-86865,BAURU,N,0.0,Operante,Automatica,-22.358052,0-76-0-3506003000000010,7,636.17,SP,A705,-49.028877,2001-08-29
0-2000-0-84806,BEBEDOURO,N,0.0,Operante,Automatica,-20.94805555,0-76-0-3506102000000528,7,542.0,SP,A764,-48.47138888,2016-10-26
0-2000-0-81680,BELEM,N,0.0,Operante,Automatica,-1.411228,0-76-0-1501402000000042,2,21.17,PA,A201,-48.439512,2003-01-19
0-2000-0-86744,BELMONTE,N,0.0,Operante,Automatica,-16.08805555,0-76-0-2903409000000453,4,89.67,BA,A447,-39.21527777,2009-07-01
0-2000-0-86800,BELO HORIZONTE (PAMPULHA),N,0.0,Operante,Automatica,-19.88388888,0-76-0-3106200000000116,5,854.02,MG,A521,-43.96944443,2006-10-09
0-2000-0-86799,BELO HORIZONTE - CERCADINHO,N,0.0,Operante,Automatica,-19.97999999,0-76-0-3106200000000597,5,1199.55,MG,F501,-43.95861111,2013-12-26
0-2000-0-86979,BENTO GONCALVES,N,0.0,Operante,Automatica,-29.164581,0-76-0-4302105000000152,8,623.27,RS,A840,-51.534202,2006-11-30
0-2000-0-86900,BERTIOGA,N,0.0,Operante,Automatica,-23.84472221,0-76-0-3506359000000536,7,5.0,SP,A765,-46.14333333,2017-01-31
0-2000-0-81615,BOA VISTA,N,0.0,Operante,Automatica,2.81694443,0-76-0-1400100000000465,1,82.35,RR,A135,-60.69083333,2010-08-25
0-2000-0-81927,BOCA DO ACRE,N,0.0,Operante,Automatica,-8.77666666,0-76-0-1300706000000400,1,111.98,AM,A110,-67.33249999,2008-07-14
0-2000-0-86968,BOM JARDIM DA SERRA - MORRO DA IGREJA,N,0.0,Operante,Automatica,-28.12694443,0-76-0-4218905000000213,8,1790.38,SC,A845,-49.47972221,2007-06-16
0-2000-0-86672,BOM JESUS DA LAPA,N,0.0,Operante,Automatica,-13.25111111,0-76-0-2903904000000186,4,447.75,BA,A418,-43.40527777,2007-05-17
0-2000-0-81987,BOM JESUS DO PIAUI,N,0.0,Operante,Automatica,-9.07999999,0-76-0-2201903000000231,3,288.0,PI,A326,-44.32777777,2007-07-16
0-2000-0-81685,BRAGANCA,N,0.0,Operante,Automatica,-1.05583333,0-76-0-1501709000000313,2,5.6,PA,A226,-46.78277777,2008-03-10
0-2000-0-84822,BRAGANCA PAULISTA,N,0.0,Operante,Automatica,-22.94916666,0-76-0-3507605000000569,7,880.0,SP,A744,-46.5261111,2017-12-19
0-2000-0-86715,BRASILIA,N,0.0,Operante,Automatica,-15.78944444,0-76-0-5300108000000001,10,1160.96,DF,A001,-47.92583332,2000-05-06
0-2000-0-86643,BRASNORTE (NOVO MUNDO),N,0.0,Operante,Automatica,-12.52194443,0-76-0-5101902000000298,9,426.2,MT,A927,-58.23138888,2008-02-28
0-2000-0-86708,BRAZLANDIA,N,0.0,Operante,Automatica,-15.59972221,0-76-0-5300108000000551,10,1143.0,DF,A042,-48.1311111,2017-07-18
0-2000-0-86618,BREJO GRANDE,N,0.0,Operante,Automatica,-10.47388888,0-76-0-2800704000000402,4,6.11,SE,A421,-36.48194443,2008-07-16
0-2000-0-81673,BREVES,N,0.0,Pane,Automatica,-1.68027777,0-76-0-1501808000000561,2,11.0,PA,A228,-50.47805554,2017-10-19
0-2000-0-86696,BRUMADO,N,0.0,Operante,Automatica,-14.18194443,0-76-0-2904605000000354,4,473.37,BA,A433,-41.67222221,2008-04-27
0-2000-0-81788,BURITICUPU,N,0.0,Operante,Automatica,-4.32055554,0-76-0-2102325000000427,2,174.91,MA,A238,-46.44944444,2008-09-10
0-2000-0-86609,BURITIRAMA,N,0.0,Operante,Automatica,-10.72305554,0-76-0-2904753000000363,4,506.06,BA,A432,-43.65111111,2008-05-14
0-2000-0-86718,BURITIS,N,0.0,Operante,Automatica,-15.52416666,0-76-0-3109303000000214,5,894.0,MG,A544,-46.43555555,2007-06-18
0-2000-0-81915,CABACEIRAS,N,0.0,Operante,Automatica,-7.48333333,0-76-0-2503100000000295,3,391.96,PB,A348,-36.28638888,2008-02-27
0-2000-0-81951,CABROBO,N,0.0,Operante,Automatica,-8.50388888,0-76-0-2603009000000250,3,342.74,PE,A329,-39.31527777,2007-09-03
0-2000-0-86943,CACADOR,N,0.0,Operante,Automatica,-26.819156,0-76-0-4203006000000319,8,944.26,SC,A859,-50.98552,2008-03-18
0-2000-0-86986,CACAPAVA DO SUL,N,0.0,Operante,Automatica,-30.54527777,0-76-0-4302808000000079,8,420.82,RS,A812,-53.46694443,2006-06-21
0-2000-0-84820,CACHOEIRA PAULISTA,N,0.0,Operante,Automatica,-22.68888888,0-76-0-3508603000000562,7,586.0,SP,A769,-45.00555555,2017-10-19
0-2000-0-86622,CACOAL,N,0.0,Operante,Automatica,-11.44583333,0-76-0-1100049000000407,9,183.53,RO,A939,-61.43416666,2008-07-19
0-2000-0-86730,CAIAPONIA,N,0.0,Operante,Automatica,-16.96694443,0-76-0-5204409000000188,10,740.1,GO,A023,-51.81749999,2007-05-20
0-2000-0-81875,CAICO,N,0.0,Operante,Automatica,-6.46749999,0-76-0-2402006000000168,3,171.26,RN,A316,-37.08499999,2007-01-06
0-2000-0-81838,CALCANHAR,N,0.0,Pane,Automatica,-5.16,0-76-0-2414407000000360,3,9.82,RN,A344,-35.48749999,2008-05-07
0-2000-0-86846,CALDAS,N,0.0,Operante,Automatica,-21.918066,0-76-0-3110301000000148,5,1077.34,MG,A530,-46.382996,2006-11-27
0-2000-0-86989,CAMAQUA,N,0.0,Operante,Automatica,-30.807953,0-76-0-4303509000000155,8,92.3,RS,A838,-51.83424,2006-12-11
0-2000-0-81878,CAMARATUBA,N,0.0,Operante,Automatica,-6.56194444,0-76-0-2509305000000359,3,135.51,PB,A352,-35.13527777,2008-05-03
0-2000-0-84808,CAMBARA DO SUL,N,0.0,Operante,Automatica,-29.04916666,0-76-0-4303608000000535,8,1017.0,RS,A897,-50.14972221,2016-11-23
0-2000-0-86854,CAMBUCI,N,0.0,Operante,Automatica,-21.58749999,0-76-0-3300902000000025,6,46.0,RJ,A604,-41.95833333,2002-11-19
0-2000-0-81710,CAMETA,N,0.0,Pane,Automatica,-2.23972221,0-76-0-1502103000000386,2,9.92,PA,A236,-49.49972221,2008-06-19
0-2000-0-86918,CAMPINA DA LAGOA,N,0.0,Operante,Automatica,-24.57083332,0-76-0-4103909000000524,8,598.0,PR,B803,-52.80027777,2016-08-03
0-2000-0-81916,CAMPINA GRANDE,N,0.0,Pane,Automatica,-7.22555554,0-76-0-2504009000000165,3,546.17,PB,A313,-35.90472222,2006-12-21
0-2000-0-86793,CAMPINA VERDE,N,0.0,Operante,Automatica,-19.53921,0-76-0-3111101000000085,5,559.07,MG,A519,-49.518133,2006-07-14
0-2000-0-86991,CAMPO BOM,N,0.0,Operante,Automatica,-29.674293,0-76-0-4303905000000494,8,23.35,RS,A884,-51.064042,2013-11-28
0-2000-0-86810,CAMPO GRANDE,N,0.0,Operante,Automatica,-20.447195,0-76-0-5002704000000013,7,528.47,MS,A702,-54.722615,2001-09-09
0-2000-0-81795,CAMPO MAIOR,N,0.0,Operante,Automatica,-4.86416666,0-76-0-2202208000000586,3,125.0,PI,A376,-42.14555555,2018-11-22
0-2000-0-86662,CAMPO NOVO DOS PARECIS,N,0.0,Operante,Automatica,-13.78583333,0-76-0-5102637000000033,9,525.41,MT,A905,-57.8386111,2002-12-12
0-2000-0-86707,CAMPO VERDE,N,0.0,Operante,Automatica,-15.55888888,0-76-0-5102678000000143,9,747.0,MT,A912,-55.17944443,2006-11-20
0-2000-0-86872,CAMPOS DO JORDAO,N,0.0,Operante,Automatica,-22.75027777,0-76-0-3509700000000019,7,1662.95,SP,A706,-45.60388888,2002-03-12
0-2000-0-86855,CAMPOS DOS GOYTACAZES,N,0.0,Operante,Automatica,-21.71472222,0-76-0-3301009000000109,6,17.0,RJ,A607,-41.34388888,2006-09-24
0-2000-0-86890,CAMPOS DOS GOYTACAZES - SAO TOME,N,0.0,Operante,Automatica,-22.04166666,0-76-0-3301009000000382,6,7.0,RJ,A620,-41.05166666,2008-06-12
0-2000-0-81902,CAMPOS LINDOS,N,0.0,Pane,Automatica,-8.15472222,0-76-0-1703842000000487,10,426.56,TO,A043,-46.63944444,2012-10-28
0-2000-0-84826,CAMPOS NOVOS,N,0.0,Operante,Automatica,-27.3886111,0-76-0-4203600000000587,8,963.0,SC,A898,-51.21583333,2019-02-14
0-2000-0-81909,CAMPOS SALES,N,0.0,Operante,Automatica,-7.07777777,0-76-0-2302701000000307,3,577.95,CE,A347,-40.36277777,2008-03-06
0-2000-0-86980,CANELA,N,0.0,Operante,Automatica,-29.36888888,0-76-0-4304408000000415,8,830.93,RS,A879,-50.82722221,2008-08-22
0-2000-0-86993,CANGUCU,N,0.0,Operante,Automatica,-31.40333333,0-76-0-4304507000000171,8,446.81,RS,A811,-52.70083333,2007-01-23
0-2000-0-81847,CANTO DO BURITI,N,0.0,Operante,Automatica,-8.11805554,0-76-0-2202307000000459,3,312.07,PI,A365,-42.97583332,2010-06-11
0-2000-0-84829,CAPAO DO LEAO (PELOTAS),N,0.0,Operante,Automatica,-31.8025,0-76-0-4304663000000595,8,13.0,RS,A887,-52.40722222,2019-07-17
0-2000-0-86761,CAPELINHA,N,0.0,Operante,Automatica,-17.70555555,0-76-0-3112307000000248,5,932.06,MG,A541,-42.38916666,2007-08-30
0-2000-0-81684,CAPITAO POCO,N,0.0,Operante,Automatica,-1.73472221,0-76-0-1502301000000473,2,79.1,PA,A248,-47.0575,2011-04-17
0-2000-0-81988,CARACOL,N,0.0,Operante,Automatica,-9.28583333,0-76-0-2202505000000268,3,515.3,PI,A337,-43.32444443,2007-11-09
0-2000-0-86802,CARATINGA,N,0.0,Operante,Automatica,-19.73583333,0-76-0-3113404000000193,5,609.25,MG,A554,-42.13722221,2007-05-23
0-2000-0-86764,CARAVELAS,N,0.0,Operante,Automatica,-17.73944444,0-76-0-2906907000000039,4,6.05,BA,A405,-39.25861111,2002-12-19
0-2000-0-81978,CARLINDA,N,0.0,Operante,Automatica,-9.97055554,0-76-0-5102793000000330,9,293.71,MT,A926,-55.82749999,2008-04-08
0-2000-0-84824,CARMO,N,0.0,Operante,Automatica,-21.9386111,0-76-0-3301207000000583,6,293.0,RJ,A629,-42.60083333,2018-10-10
0-2000-0-81901,CAROLINA,N,0.0,Pane,Automatica,-7.33722221,0-76-0-2102804000000279,2,182.88,MA,A205,-47.45972222,2007-12-03
0-2000-0-81956,CARUARU,N,0.0,Operante,Automatica,-8.36527777,0-76-0-2604106000000276,3,852.0,PE,A341,-36.02833332,2007-11-20
0-2000-0-86844,CASA BRANCA,N,0.0,Operante,Automatica,-21.78055554,0-76-0-3510807000000216,7,734.15,SP,A738,-47.07527777,2007-06-24
0-2000-0-86791,CASSILANDIA,N,0.0,Operante,Automatica,-19.12249999,0-76-0-5002902000000308,7,494.72,MS,A742,-51.72083332,2008-03-07
0-2000-0-81682,CASTANHAL,N,0.0,Operante,Automatica,-1.30083333,0-76-0-1502400000000044,2,47.13,PA,A202,-47.94805555,2003-01-23
0-2000-0-81829,CASTELO DO PIAUI,N,0.0,Operante,Automatica,-5.34916666,0-76-0-2202604000000445,3,268.75,PI,A361,-41.51222222,2009-04-19
0-2000-0-86921,CASTRO,N,0.0,Operante,Automatica,-24.77999999,0-76-0-4104907000000081,8,1016.0,PR,A819,-50.04638888,2006-07-08
0-2000-0-86777,CATALAO,N,0.0,Operante,Automatica,-18.154779,0-76-0-5205109000000286,10,900.72,GO,A034,-47.927614,2008-01-30
0-2000-0-81792,CAXIAS,N,0.0,Operante,Automatica,-4.82138888,0-76-0-2103000000000399,2,84.85,MA,A237,-43.3436111,2008-07-12
0-2000-0-86719,CHAPADA GAUCHA,N,0.0,Operante,Automatica,-15.30027777,0-76-0-3116159000000215,5,873.2,MG,A548,-45.61749999,2007-06-21
0-2000-0-86772,CHAPADAO DO SUL,N,0.0,Operante,Automatica,-18.80222222,0-76-0-5002951000000163,7,820.82,MS,A730,-52.6025,2006-12-19
0-2000-0-81749,CHAPADINHA,N,0.0,Operante,Automatica,-3.74277777,0-76-0-2103208000000430,2,104.0,MA,A206,-43.35222222,2008-09-16
0-2000-0-84827,CHAPECO,N,0.0,Operante,Automatica,-27.0853111,0-76-0-4204202000000588,8,679.0,SC,A895,-52.6357111,2019-02-18
0-2000-0-86898,CIDADE GAUCHA,N,0.0,Operante,Automatica,-23.35916666,0-76-0-4105607000000314,8,365.79,PR,A869,-52.93194443,2008-03-10
0-2000-0-86939,CLEVELANDIA,N,0.0,Operante,Automatica,-26.41722221,0-76-0-4105706000000364,8,966.06,PR,A876,-52.3486111,2008-05-14
0-2000-0-81770,COARI,N,0.0,Operante,Automatica,-4.09749999,0-76-0-1301209000000335,1,33.84,AM,A117,-63.14527777,2008-04-11
0-2000-0-81866,COLINAS,N,0.0,Operante,Automatica,-6.03305554,0-76-0-2103505000000374,2,175.37,MA,A222,-44.23333333,2008-06-02
0-2000-0-81939,COLINAS DO TOCANTINS,N,0.0,Operante,Automatica,-8.092708,0-76-0-1705508000000530,10,200.0,TO,A049,-48.478605,2016-11-10
0-2000-0-86928,COLOMBO,N,0.0,Operante,Automatica,-25.322464,0-76-0-4105805000000516,8,950.0,PR,B806,-49.157733,2016-05-31
0-2000-0-86661,COMODORO,N,0.0,Operante,Automatica,-13.70805555,0-76-0-5103304000000149,9,576.87,MT,A913,-59.7625,2006-11-27
0-2000-0-86794,CONCEICAO DAS ALAGOAS,N,0.0,Operante,Automatica,-19.98586,0-76-0-3117306000000087,5,572.54,MG,A520,-48.151574,2006-07-17
0-2000-0-81940,CONCEICAO DO ARAGUAIA,N,0.0,Operante,Automatica,-8.30361111,0-76-0-1502707000000419,2,175.74,PA,A241,-49.28277777,2008-09-03
0-2000-0-86639,CONDE,N,0.0,Operante,Automatica,-12.03583333,0-76-0-2908606000000329,4,31.9,BA,A431,-37.68388888,2008-04-06
0-2000-0-86822,CORONEL PACHECO,N,0.0,Operante,Automatica,-21.54666666,0-76-0-3119609000000485,5,411.14,MG,A557,-43.26111111,2012-10-16
0-2000-0-86617,CORRENTE,N,0.0,Operante,Automatica,-10.42916666,0-76-0-2202901000000579,3,452.0,PI,A374,-45.17305554,2018-03-27
0-2000-0-86671,CORRENTINA,N,0.0,Operante,Automatica,-13.33249999,0-76-0-2909307000000266,4,551.71,BA,A416,-44.61749999,2007-11-08
0-2000-0-86767,CORUMBA,N,0.0,Operante,Automatica,-18.99666666,0-76-0-5003207000000126,7,111.73,MS,A724,-57.63749999,2006-10-25
0-2000-0-86619,CORURIPE,N,0.0,Operante,Automatica,-10.1286111,0-76-0-2702306000000422,3,82.39,AL,A355,-36.28638888,2008-09-05
0-2000-0-86771,COSTA RICA,N,0.0,Operante,Automatica,-18.49277777,0-76-0-5003256000000490,7,727.34,MS,A760,-53.17138888,2012-12-03
0-2000-0-81975,COTRIGUACU,N,0.0,Operante,Automatica,-9.90638888,0-76-0-5103379000000199,9,265.0,MT,A919,-58.57222221,2007-05-27
0-2000-0-86770,COXIM,N,0.0,Operante,Automatica,-18.51222222,0-76-0-5003306000000136,7,251.48,MS,A720,-54.7361111,2006-11-05
0-2000-0-81830,CRATEUS,N,0.0,Operante,Automatica,-5.18666666,0-76-0-2304103000000439,3,298.19,CE,A342,-40.67222221,2008-12-10
0-2000-0-86737,CRISTALINA,N,0.0,Operante,Automatica,-16.78499999,0-76-0-5206206000000280,10,1211.08,GO,A036,-47.61305555,2007-12-13
0-2000-0-86727,CRISTALINA (FAZENDA SANTA MONICA),N,0.0,Operante,Automatica,-16.39944444,0-76-0-5206206000000570,10,932.0,GO,A056,-47.62583332,2018-01-24
0-2000-0-86962,CRUZ ALTA,N,0.0,Operante,Automatica,-28.60344,0-76-0-4306106000000203,8,426.69,RS,A853,-53.673597,2007-05-30
0-2000-0-86657,CRUZ DAS ALMAS,N,0.0,Operante,Automatica,-12.67555554,0-76-0-2909802000000041,4,219.76,BA,A406,-39.08944444,2003-01-18
0-2000-0-81881,CRUZEIRO DO SUL,N,0.0,Operante,Automatica,-7.61055555,0-76-0-1200203000000498,1,220.0,AC,A108,-72.6811111,2015-05-13
0-2000-0-86705,CUIABA,N,0.0,Operante,Automatica,-15.559295,0-76-0-5108402000000028,9,241.56,MT,A901,-56.062951,2002-12-07
0-2000-0-81984,CURACA,N,0.0,Operante,Automatica,-9.00138888,0-76-0-2909901000000503,4,370.0,BA,A448,-39.9125,2015-08-19
0-2000-0-86933,CURITIBA,N,0.0,Operante,Automatica,-25.4486111,0-76-0-4106902000000046,8,922.91,PR,A807,-49.23055554,2003-01-27
0-2000-0-86956,CURITIBANOS,N,0.0,Operante,Automatica,-27.2886111,0-76-0-4204806000000296,8,978.1,SC,A860,-50.60416666,2008-02-27
0-2000-0-86780,CURVELO,N,0.0,Operante,Automatica,-18.747711,0-76-0-3120904000000158,5,669.48,MG,A538,-44.453785,2006-12-17
0-2000-0-86610,DELFINO,N,0.0,Operante,Automatica,-10.455,0-76-0-2932457000000401,4,646.24,BA,A443,-41.20694444,2008-07-14
0-2000-0-86861,DIAMANTE DO NORTE,N,0.0,Operante,Automatica,-22.63944444,0-76-0-4107108000000306,8,368.22,PR,A849,-52.89027777,2008-03-05
0-2000-0-86781,DIAMANTINA,N,0.0,Operante,Automatica,-18.231052,0-76-0-3121605000000209,5,1359.25,MG,A537,-43.648269,2007-06-04
0-2000-0-86632,DIANOPOLIS,N,0.0,Operante,Automatica,-11.59444444,0-76-0-1707009000000417,10,727.87,TO,A038,-46.84722221,2008-08-29
0-2000-0-86936,DIONISIO CERQUEIRA,N,0.0,Operante,Automatica,-26.286562,0-76-0-4205001000000372,8,807.54,SC,A848,-53.633114,2008-05-30
0-2000-0-84821,DIVINOPOLIS,N,0.0,Operante,Automatica,-20.17333332,0-76-0-3122306000000565,5,796.0,MG,A564,-44.87499999,2017-10-25
0-2000-0-86927,DOIS VIZINHOS,N,0.0,Operante,Automatica,-25.69916666,0-76-0-4107207000000178,8,545.95,PR,A843,-53.09527777,2007-03-28
0-2000-0-81782,DOM ELISEU,N,0.0,Operante,Automatica,-4.28055554,0-76-0-1502939000000571,2,251.0,PA,A252,-47.56388888,2018-03-07
0-2000-0-86985,DOM PEDRITO,N,0.0,Operante,Automatica,-31.0025,0-76-0-4306601000000458,8,150.0,RS,A881,-54.61805554,2010-04-22
0-2000-0-86797,DORES DO INDAIA,N,0.0,Operante,Automatica,-19.48194443,0-76-0-3123205000000205,5,721.09,MG,A536,-45.59388888,2007-05-31
0-2000-0-86858,DOURADOS,N,0.0,Operante,Automatica,-22.19388888,0-76-0-5003702000000118,7,463.3,MS,A721,-54.91138888,2006-10-17
0-2000-0-84807,DRACENA,N,0.0,Operante,Automatica,-21.45777777,0-76-0-3514403000000529,7,383.0,SP,A762,-51.55222222,2016-11-02
0-2000-0-86877,DUQUE DE CAXIAS - XEREM,N,0.0,Operante,Automatica,-22.58972221,0-76-0-3301702000000022,6,22.0,RJ,A603,-43.28222221,2002-10-20
0-2000-0-86766,ECOPORANGA,N,0.0,Operante,Automatica,-18.29138888,0-76-0-3202108000000541,6,224.0,ES,A631,-40.73638888,2017-03-16
0-2000-0-86754,EDEIA,N,0.0,Operante,Automatica,-17.33694444,0-76-0-5207402000000556,10,608.0,GO,A029,-49.91472222,2017-08-25
0-2000-0-81843,EIRUNEPE,N,0.0,Pane,Automatica,-6.65027777,0-76-0-1301407000000483,1,121.54,AM,A109,-69.8686111,2012-08-30
0-2000-0-86997,ENCRUZILHADA DO SUL,N,0.0,Operante,Automatica,-30.54305555,0-76-0-4306908000000575,8,427.75,RS,A893,-52.52472221,2018-03-14
0-2000-0-86620,EPITACIOLANDIA,N,0.0,Operante,Automatica,-11.02388888,0-76-0-1200252000000455,1,224.5,AC,A140,-68.73527777,2009-09-24
0-2000-0-86954,ERECHIM,N,0.0,Operante,Automatica,-27.65777777,0-76-0-4307005000000146,8,777.08,RS,A828,-52.30583333,2006-11-24
0-2000-0-86695,ESPINOSA,N,0.0,Operante,Automatica,-14.91222222,0-76-0-3124302000000273,5,565.36,MG,A543,-42.80861111,2007-11-13
0-2000-0-81863,ESTREITO,N,0.0,Operante,Automatica,-6.65333333,0-76-0-2104057000000293,2,182.96,MA,A224,-47.41833332,2008-02-26
0-2000-0-86613,EUCLIDES DA CUNHA,N,0.0,Operante,Automatica,-10.53722221,0-76-0-2910701000000326,4,431.96,BA,A442,-38.99666666,2008-03-30
0-2000-0-81716,FAROL de SANTANA,N,0.0,Pane,Automatica,-2.27083332,0-76-0-2105005000000438,2,9.87,MA,A217,-43.62416666,2008-11-27
0-2000-0-81924,FEIJO,N,0.0,Operante,Automatica,-8.14277777,0-76-0-1200302000000454,1,157.17,AC,A138,-70.3436111,2009-09-23
0-2000-0-86658,FEIRA DE SANTANA,N,0.0,Operante,Automatica,-12.1961111,0-76-0-2910800000000195,4,229.64,BA,A413,-38.96749999,2007-05-25
0-2000-0-81952,FLORESTA,N,0.0,Operante,Automatica,-8.59888888,0-76-0-2605707000000429,3,327.42,PE,A351,-38.58416666,2008-09-14
0-2000-0-86798,FLORESTAL,N,0.0,Operante,Automatica,-19.88527777,0-76-0-3126000000000392,5,753.5,MG,A535,-44.41694443,2008-06-26
0-2000-0-81868,FLORIANO,N,0.0,Operante,Automatica,-6.76138888,0-76-0-2203909000000067,3,126.39,PI,A311,-43.00333333,2004-11-17
0-2000-0-86958,FLORIANOPOLIS,N,0.0,Operante,Automatica,-27.6025,0-76-0-4216602000000043,8,4.87,SC,A806,-48.61999999,2003-01-21
0-2000-0-86820,FORMIGA,N,0.0,Operante,Automatica,-20.455,0-76-0-3126109000000094,5,878.14,MG,A524,-45.45388888,2006-08-16
0-2000-0-86623,FORMOSA DO RIO PRETO,N,0.0,Operante,Automatica,-11.05222222,0-76-0-2911105000000517,4,488.0,BA,A452,-45.20083333,2016-06-01
0-2000-0-86629,FORMOSO DO ARAGUAIA,N,0.0,Operante,Automatica,-11.88749999,0-76-0-1708205000000351,10,215.2,TO,A039,-49.60833333,2008-04-26
0-2000-0-81758,FORTALEZA,N,0.0,Operante,Automatica,-3.81583333,0-76-0-2304400000000057,3,29.55,CE,A305,-38.53777777,2003-02-17
0-2000-0-86925,FOZ DO IGUACU,N,0.0,Operante,Automatica,-25.60194444,0-76-0-4108304000000288,8,235.09,PR,A846,-54.48305554,2008-02-14
0-2000-0-86818,FRANCA,N,0.0,Operante,Automatica,-20.58444444,0-76-0-3516200000000031,7,1002.74,SP,A708,-47.38249999,2002-12-11
0-2000-0-86951,FREDERICO WESTPHALEN,N,0.0,Operante,Automatica,-27.39555555,0-76-0-4308508000000281,8,489.42,RS,A854,-53.42944443,2007-12-13
0-2000-0-86717,GAMA (PONTE ALTA),N,0.0,Operante,Automatica,-15.93527777,0-76-0-5300108000000496,10,990.0,DF,A046,-48.13749999,2014-09-30
0-2000-0-81955,GARANHUNS,N,0.0,Operante,Automatica,-8.91083333,0-76-0-2606002000000222,3,827.78,PE,A322,-36.49333333,2007-07-07
0-2000-0-86666,GAUCHA DO NORTE,N,0.0,Operante,Automatica,-13.18472221,0-76-0-5103858000000377,9,375.87,MT,A930,-53.2575,2008-06-03
0-2000-0-86941,GENERAL CARNEIRO,N,0.0,Operante,Automatica,-26.3986111,0-76-0-4108502000000356,8,1009.01,PR,A875,-51.35361111,2008-04-29
0-2000-0-81986,GILBUES,N,0.0,Operante,Automatica,-9.87527777,0-76-0-2204402000000447,3,425.1,PI,A364,-45.34583333,2009-05-15
0-2000-0-86713,GOIANESIA,N,0.0,Operante,Automatica,-15.22027777,0-76-0-5208608000000206,10,667.01,GO,A022,-48.98999999,2007-06-01
0-2000-0-86734,GOIANIA,N,0.0,Operante,Automatica,-16.64277777,0-76-0-5208707000000007,10,727.3,GO,A002,-49.22027777,2001-05-28
0-2000-0-86712,GOIAS,N,0.0,Pane,Automatica,-15.93972221,0-76-0-5208905000000232,10,512.86,GO,A014,-50.14138888,2007-07-17
0-2000-0-86917,GOIOERE,N,0.0,Operante,Automatica,-24.18388888,0-76-0-4108601000000119,8,481.0,PR,A825,-53.04888888,2006-10-18
0-2000-0-86783,GOVERNADOR VALADARES,N,0.0,Operante,Automatica,-18.830354,0-76-0-3127701000000197,5,198.24,MG,A532,-41.977007,2007-05-26
0-2000-0-81823,GRAJAU,N,0.0,Operante,Automatica,-5.81611111,0-76-0-2104800000000425,2,232.29,MA,A207,-46.16222222,2008-09-09
0-2000-0-86694,GUANAMBI,N,0.0,Pane,Automatica,-14.20805555,0-76-0-2911709000000347,4,552.23,BA,A426,-42.74972221,2008-04-23
0-2000-0-86782,GUANHAES,N,0.0,Operante,Automatica,-18.78694444,0-76-0-3128006000000207,5,852.68,MG,A533,-42.94305555,2007-06-01
0-2000-0-81797,GUARAMIRANGA,N,0.0,Pane,Automatica,-4.22916666,0-76-0-2305100000000194,3,865.53,CE,A314,-38.95888888,2007-05-25
0-2000-0-81979,GUARANTA DO NORTE,N,0.0,Operante,Automatica,-9.9525,0-76-0-5104104000000040,9,283.58,MT,A906,-54.89777777,2002-12-19
0-2000-0-86757,GUARDA-MOR,N,0.0,Operante,Automatica,-17.56138888,0-76-0-3128600000000225,5,997.01,MG,A546,-47.19916666,2007-07-10
0-2000-0-86729,GUIRATINGA,N,0.0,Operante,Automatica,-16.34166666,0-76-0-5104203000000282,9,525.43,MT,A932,-53.76611111,2008-01-23
0-2000-0-86630,GURUPI,N,0.0,Operante,Automatica,-11.74499999,0-76-0-1709500000000161,10,274.0,TO,A019,-49.05166666,2006-12-19
0-2000-0-81890,HUMAITA,N,0.0,Operante,Automatica,-7.5525,0-76-0-1301704000000349,1,53.56,AM,A112,-63.07138888,2008-04-24
0-2000-0-81954,IBIMIRIM,N,0.0,Operante,Automatica,-8.50944444,0-76-0-2606606000000436,3,434.23,PE,A349,-37.71166666,2008-10-13
0-2000-0-86821,IBIRITE (ROLA MOCA),N,0.0,Operante,Automatica,-20.03138888,0-76-0-3129806000000378,5,1198.82,MG,A555,-44.01111111,2008-06-05
0-2000-0-86974,IBIRUBA,N,0.0,Operante,Automatica,-28.65333333,0-76-0-4310009000000491,8,455.27,RS,A883,-53.11194444,2012-12-12
0-2000-0-86843,IBITINGA,N,0.0,Operante,Automatica,-21.85555555,0-76-0-3519600000000267,7,496.75,SP,A737,-48.79972221,2007-11-08
0-2000-0-86653,IBOTIRAMA,N,0.0,Operante,Automatica,-12.19305555,0-76-0-2913200000000355,4,425.12,BA,A439,-43.21333333,2008-04-27
0-2000-0-86897,ICARAIMA,N,0.0,Pane,Automatica,-23.39027777,0-76-0-4109906000000139,8,381.29,PR,A824,-53.63583333,2006-11-15
0-2000-0-86923,IGUAPE,N,0.0,Operante,Automatica,-24.67166666,0-76-0-3520301000000088,7,2.7,SP,A712,-47.54583333,2006-07-19
0-2000-0-81873,IGUATU,N,0.0,Operante,Automatica,-6.39638888,0-76-0-2305506000000200,3,221.56,CE,A319,-39.26888888,2007-05-29
0-2000-0-86699,ILHEUS,N,0.0,Operante,Automatica,-14.65888888,0-76-0-2913606000000045,4,80.21,BA,A410,-39.18138888,2003-01-24
0-2000-0-81822,IMPERATRIZ,N,0.0,Operante,Automatica,-5.55583333,0-76-0-2105302000000299,2,117.96,MA,A225,-47.45972222,2008-02-29
0-2000-0-86929,INACIO MARTINS,N,0.0,Operante,Automatica,-25.567879,0-76-0-4110201000000117,8,1208.85,PR,A823,-51.077946,2006-10-15
0-2000-0-86946,INDAIAL,N,0.0,Operante,Automatica,-26.91361111,0-76-0-4207502000000080,8,72.24,SC,A817,-49.26805554,2006-07-01
0-2000-0-81837,IPANGUACU,N,0.0,Operante,Automatica,-5.53499999,0-76-0-2404705000000568,3,19.0,RN,A372,-36.87222221,2017-11-07
0-2000-0-86698,IPIAU,N,0.0,Operante,Automatica,-14.17138888,0-76-0-2913903000000452,4,132.11,BA,A445,-39.69249999,2009-06-29
0-2000-0-86731,IPORA,N,0.0,Operante,Automatica,-16.42305554,0-76-0-5210208000000493,10,610.41,GO,A028,-51.14888888,2013-06-23
0-2000-0-86635,IRECE,N,0.0,Operante,Automatica,-11.328998,0-76-0-2914604000000325,4,768.42,BA,A424,-41.864504,2008-03-30
0-2000-0-86601,ITABAIANA,N,0.0,Pane,Automatica,-10.67166666,0-76-0-2802908000000544,4,213.0,SE,A451,-37.47138888,2017-04-23
0-2000-0-86638,ITABAIANINHA,N,0.0,Operante,Automatica,-11.27249999,0-76-0-2803005000000191,4,204.8,SE,A417,-37.79499999,2007-05-22
0-2000-0-86656,ITABERABA,N,0.0,Operante,Automatica,-12.52416666,0-76-0-2914703000000048,4,250.11,BA,A408,-40.29972221,2003-01-28
0-2000-0-81733,ITACOATIARA,N,0.0,Operante,Automatica,-3.13333333,0-76-0-1301902000000340,1,41.54,AM,A121,-58.48277777,2008-04-16
0-2000-0-81778,ITAITUBA,N,0.0,Operante,Automatica,-4.27694443,0-76-0-1503606000000290,2,24.46,PA,A231,-55.99305555,2008-02-16
0-2000-0-86948,ITAJAI,N,0.0,Operante,Automatica,-26.95083333,0-76-0-4208203000000461,8,9.76,SC,A868,-48.76194444,2010-06-23
0-2000-0-86760,ITAMARAJU,N,0.0,Operante,Automatica,-17.00694444,0-76-0-2915601000000514,4,110.0,BA,A455,-39.55805555,2016-05-27
0-2000-0-86742,ITAOBIM,N,0.0,Operante,Automatica,-16.57555554,0-76-0-3133303000000251,5,271.63,MG,A550,-41.48555555,2007-09-04
0-2000-0-86689,ITAPACI,N,0.0,Pane,Automatica,-14.97972221,0-76-0-5210901000000173,10,551.0,GO,A015,-49.53944444,2007-02-02
0-2000-0-86723,ITAPETINGA,N,0.0,Operante,Automatica,-15.24472221,0-76-0-2916401000000450,4,271.48,BA,A446,-40.22944443,2009-06-24
0-2000-0-86905,ITAPEVA,N,0.0,Operante,Automatica,-23.98194443,0-76-0-3522406000000090,7,743.33,SP,A714,-48.88583333,2006-07-24
0-2000-0-81756,ITAPIPOCA,N,0.0,Operante,Automatica,-3.48416666,0-76-0-2306405000000421,3,104.49,CE,A359,-39.5886111,2008-09-04
0-2000-0-86869,ITAPIRA,N,0.0,Operante,Automatica,-22.415,0-76-0-3522604000000263,7,634.89,SP,A739,-46.80527777,2007-11-04
0-2000-0-86947,ITAPOA,N,0.0,Operante,Automatica,-26.08138888,0-76-0-4208450000000210,8,6.18,SC,A851,-48.64166666,2007-06-05
0-2000-0-81907,ITAPORANGA,N,0.0,Operante,Automatica,-7.31833332,0-76-0-2507002000000567,3,292.0,PB,A373,-38.14083333,2017-11-02
0-2000-0-86896,ITAQUIRAI,N,0.0,Operante,Automatica,-23.44944444,0-76-0-5004601000000367,7,337.82,MS,A752,-54.18194443,2008-05-27
0-2000-0-81636,ITAUBAL,N,0.0,Operante,Automatica,0.56777777,0-76-0-1600253000000554,2,21.0,AP,A251,-50.8236111,2017-08-23
0-2000-0-86748,ITIQUIRA,N,0.0,Pane,Automatica,-17.17499999,0-76-0-5104609000000414,9,593.12,MT,A933,-54.50166666,2008-08-13
0-2000-0-86674,ITIRUCU,N,0.0,Pane,Automatica,-13.52777777,0-76-0-2916906000000053,4,757.42,BA,A407,-40.11972221,2003-02-08
0-2000-0-86775,ITUIUTABA,N,0.0,Operante,Automatica,-18.95277777,0-76-0-3134202000000076,5,540.08,MG,A512,-49.52499999,2006-05-11
0-2000-0-86774,ITUMBIARA,N,0.0,Operante,Automatica,-18.40972222,0-76-0-5211503000000261,10,491.17,GO,A035,-49.19194444,2007-10-31
0-2000-0-86957,ITUPORANGA,N,0.0,Operante,Automatica,-27.41833332,0-76-0-4208500000000303,8,479.79,SC,A863,-49.64694444,2008-03-03
0-2000-0-86817,ITUVERAVA,N,0.0,Operante,Automatica,-20.35972222,0-76-0-3524105000000403,7,610.58,SP,A753,-47.77527777,2008-07-16
0-2000-0-86930,IVAI,N,0.0,Pane,Automatica,-25.01083333,0-76-0-4111407000000082,8,803.58,PR,A818,-50.85388888,2006-07-10
0-2000-0-86860,IVINHEMA,N,0.0,Operante,Automatica,-22.30055555,0-76-0-5004700000000052,7,377.36,MS,A709,-53.82277777,2003-02-07
0-2000-0-86636,JACOBINA,N,0.0,Operante,Automatica,-11.205,0-76-0-2917508000000357,4,440.78,BA,A440,-40.465,2008-04-30
0-2000-0-86996,JAGUARAO,N,0.0,Operante,Automatica,-32.53472221,0-76-0-4311007000000169,8,31.48,RS,A836,-53.37583332,2007-01-08
0-2000-0-81833,JAGUARIBE,N,0.0,Operante,Automatica,-5.90555555,0-76-0-2306900000000426,3,149.31,CE,A358,-38.62777777,2008-09-09
0-2000-0-81798,JAGUARUANA,N,0.0,Operante,Automatica,-4.83777777,0-76-0-2307007000000269,3,12.0,CE,A339,-37.69972221,2007-11-09
0-2000-0-86814,JALES,N,0.0,Operante,Automatica,-20.165,0-76-0-3524808000000242,7,460.44,SP,A733,-50.59499999,2007-08-21
0-2000-0-86710,JANUARIA,N,0.0,Operante,Automatica,-15.44805555,0-76-0-3135209000000521,5,468.0,MG,A559,-44.36638888,2016-06-22
0-2000-0-86902,JAPIRA,N,0.0,Operante,Automatica,-23.77333332,0-76-0-4109708000000297,8,692.88,PR,A871,-50.18055554,2008-02-28
0-2000-0-86835,JARDIM,N,0.0,Operante,Automatica,-21.4786111,0-76-0-5005004000000474,7,252.47,MS,A758,-56.13777777,2011-08-03
0-2000-0-86752,JATAI,N,0.0,Operante,Automatica,-17.9236111,0-76-0-5211909000000190,10,670.08,GO,A016,-51.71749999,2007-05-22
0-2000-0-86605,JEREMOABO,N,0.0,Operante,Automatica,-10.08083332,0-76-0-2918100000000499,4,261.0,BA,A450,-38.34583333,2015-08-12
0-2000-0-86955,JOACABA,N,0.0,Operante,Automatica,-27.16916666,0-76-0-4209003000000254,8,767.63,SC,A841,-51.55888888,2007-09-19
0-2000-0-81918,JOAO PESSOA,N,0.0,Operante,Automatica,-7.16527777,0-76-0-2507507000000234,3,33.5,PB,A320,-34.81555555,2007-07-20
0-2000-0-86758,JOAO PINHEIRO,N,0.0,Operante,Automatica,-17.78444444,0-76-0-3136306000000221,5,877.05,MG,A553,-46.11944443,2007-07-06
0-2000-0-86903,JOAQUIM TAVORA,N,0.0,Pane,Automatica,-23.50527777,0-76-0-4112801000000144,8,512.67,PR,A821,-49.94638888,2006-11-22
0-2000-0-86839,JOSE BONIFACIO,N,0.0,Operante,Automatica,-21.08555555,0-76-0-3525706000000249,7,408.35,SP,A735,-49.92027777,2007-09-02
0-2000-0-86625,JUARA,N,0.0,Pane,Automatica,-11.28027777,0-76-0-5105101000000134,9,263.43,MT,A914,-57.52666666,2006-11-01
0-2000-0-86624,JUINA,N,0.0,Operante,Automatica,-11.37499999,0-76-0-5105150000000145,9,365.39,MT,A920,-58.77472221,2006-11-23
0-2000-0-86851,JUIZ DE FORA,N,0.0,Operante,Automatica,-21.769965,0-76-0-3136702000000196,5,936.88,MG,A518,-43.364329,2007-05-25
0-2000-0-86859,JUTI,N,0.0,Operante,Automatica,-22.85722222,0-76-0-5005152000000384,7,375.18,MS,A749,-54.60555555,2008-06-15
0-2000-0-81888,LABREA,N,0.0,Operante,Automatica,-7.26055555,0-76-0-1302405000000412,1,61.91,AM,A111,-64.7886111,2008-07-26
0-2000-0-86932,LAGES,N,0.0,Operante,Automatica,-27.80222222,0-76-0-4209300000000497,8,952.7,SC,A865,-50.33555555,2014-11-05
0-2000-0-86602,LAGOA DA CONFUSAO,N,0.0,Operante,Automatica,-10.828286,0-76-0-1711902000000531,10,178.0,TO,A055,-49.847882,2016-11-14
0-2000-0-86965,LAGOA VERMELHA,N,0.0,Operante,Automatica,-28.222381,0-76-0-4311304000000175,8,833.83,RS,A844,-51.512845,2007-03-01
0-2000-0-86949,LARANJEIRAS DO SUL,N,0.0,Operante,Automatica,-25.37138888,0-76-0-4113304000000525,8,889.0,PR,B804,-52.40083333,2016-08-06
0-2000-0-86654,LENCOIS,N,0.0,Operante,Automatica,-12.55777777,0-76-0-2900702000000328,4,438.09,BA,A425,-41.38888888,2008-04-04
0-2000-0-86805,LINHARES,N,0.0,Operante,Automatica,-19.35694444,0-76-0-3203205000000128,6,40.0,ES,A614,-40.0686111,2006-10-26
0-2000-0-86840,LINS,N,0.0,Operante,Automatica,-21.66611111,0-76-0-3527108000000105,7,460.65,SP,A727,-49.73472221,2006-09-19
0-2000-0-86651,LUIZ EDUARDO MAGALHAES,N,0.0,Operante,Automatica,-12.1525,0-76-0-2903201000000021,4,760.68,BA,A404,-45.82972221,2002-04-17
0-2000-0-86736,LUZIANIA,N,0.0,Operante,Automatica,-16.26055555,0-76-0-5212501000000120,10,1000.82,GO,A012,-47.96694443,2006-10-20
0-2000-0-86972,Laguna  - Farol de Santa Marta,N,0.0,Operante,Automatica,-28.60444444,0-76-0-4209409000000373,8,34.36,SC,A866,-48.81333333,2008-05-31
0-2000-0-86891,MACAE,N,0.0,Operante,Automatica,-22.3761111,0-76-0-3302403000000106,6,28.0,RJ,A608,-41.81194444,2006-09-21
0-2000-0-86655,MACAJUBA,N,0.0,Operante,Automatica,-12.13166666,0-76-0-2919603000000049,4,360.0,BA,A412,-40.35416666,2003-02-02
0-2000-0-81638,MACAPA,N,0.0,Operante,Automatica,0.03499999,0-76-0-1600303000000495,2,16.62,AP,A249,-51.08888888,2013-12-11
0-2000-0-81836,MACAU,N,0.0,Operante,Automatica,-5.15111111,0-76-0-2407203000000167,3,17.37,RN,A317,-36.57305554,2007-01-05
0-2000-0-81998,MACEIO,N,0.0,Operante,Automatica,-9.55111111,0-76-0-2700508000000061,3,84.12,AL,A303,-35.77027777,2003-02-24
0-2000-0-84815,MACHADO,N,0.0,Operante,Automatica,-21.680722,0-76-0-3139003000000552,5,969.0,MG,A567,-45.944389,2017-07-20
0-2000-0-86942,MAJOR VIEIRA,N,0.0,Operante,Automatica,-26.3936111,0-76-0-4210308000000442,8,799.58,SC,A864,-50.36333333,2009-02-08
0-2000-0-86916,MAL. CANDIDO RONDON,N,0.0,Operante,Automatica,-24.53333333,0-76-0-4114609000000140,8,392.07,PR,A820,-54.01916666,2006-11-17
0-2000-0-81729,MANACAPURU,N,0.0,Operante,Automatica,-3.29472221,0-76-0-1302504000000331,1,36.57,AM,A119,-60.62833332,2008-04-09
0-2000-0-81730,MANAUS,N,0.0,Operante,Automatica,-3.10333333,0-76-0-1302603000000003,1,61.25,AM,A101,-60.01638888,2000-05-08
0-2000-0-86825,MANHUACU,N,0.0,Operante,Automatica,-20.26333333,0-76-0-3139409000000467,5,819.47,MG,A556,-42.18277777,2010-09-24
0-2000-0-81810,MANICORE,N,0.0,Operante,Automatica,-5.7886111,0-76-0-1302702000000479,1,40.64,AM,A133,-61.28833333,2011-12-11
0-2000-0-86784,MANTENA,N,0.0,Operante,Automatica,-18.78062,0-76-0-3139607000000238,5,254.91,MG,A540,-40.986505,2007-07-31
0-2000-0-81820,MARABA,N,0.0,Pane,Automatica,-5.36638888,0-76-0-1504208000000449,2,116.58,PA,A240,-49.05111111,2009-06-24
0-2000-0-86834,MARACAJU,N,0.0,Operante,Automatica,-21.60916666,0-76-0-5005400000000156,7,388.94,MS,A731,-55.17749999,2006-12-14
0-2000-0-86677,MARAU,N,0.0,Pane,Automatica,-13.90694444,0-76-0-2920700000000387,4,6.24,BA,A438,-38.97222221,2008-06-21
0-2000-0-81922,MARECHAL THAUMATURGO,N,0.0,Pane,Automatica,-8.95,0-76-0-1200351000000456,1,220.98,AC,A137,-72.78666666,2009-10-26
0-2000-0-86871,MARIA DA FE,N,0.0,Operante,Automatica,-22.31444444,0-76-0-3139904000000151,5,1281.43,MG,A531,-45.37305554,2006-11-30
0-2000-0-81983,MARIANOPOLIS DO TO,N,0.0,Operante,Automatica,-9.57638888,0-76-0-1712504000000488,10,186.69,TO,A041,-49.72333332,2012-11-23
0-2000-0-84810,MARILANDIA,N,0.0,Operante,Automatica,-19.40722222,0-76-0-3203353000000542,6,95.0,ES,A632,-40.53972221,2017-03-21
0-2000-0-84813,MARILIA,N,0.0,Operante,Automatica,-22.235222,0-76-0-3529005000000547,7,660.0,SP,A763,-49.965111,2017-05-14
0-2000-0-86899,MARINGA,N,0.0,Operante,Automatica,-23.40527777,0-76-0-4115200000000142,8,548.51,PR,A835,-51.93277777,2006-11-20
0-2000-0-86608,MATEIROS,N,0.0,Operante,Automatica,-10.43444444,0-76-0-1712702000000486,10,791.0,TO,A040,-45.92194443,2012-10-24
0-2000-0-81734,MAUES,N,0.0,Operante,Automatica,-3.39888888,0-76-0-1302900000000345,1,25.49,AM,A122,-57.67388888,2008-04-21
0-2000-0-81739,MEDICILANDIA,N,0.0,Operante,Automatica,-3.51083333,0-76-0-1504455000000289,2,251.68,PA,A209,-52.96333333,2008-02-16
0-2000-0-81855,MINA DO PALITO,N,0.0,Pane,Automatica,-6.31999999,0-76-0-1500602000000468,2,259.88,PA,A246,-55.78777777,2010-09-27
0-2000-0-86751,MINEIROS,N,0.0,Operante,Automatica,-17.45472222,0-76-0-5213103000000277,10,862.0,GO,A026,-52.60111111,2007-11-23
0-2000-0-86807,MIRANDA,N,0.0,Operante,Automatica,-20.39555555,0-76-0-5005608000000133,7,132.49,MS,A722,-56.43166666,2006-11-01
0-2000-0-86720,MOCAMBINHO,N,0.0,Operante,Automatica,-15.08583333,0-76-0-3135050000000270,5,454.0,MG,A539,-44.01611111,2007-11-10
0-2000-0-86693,MONTALVANIA,N,0.0,Operante,Automatica,-14.40833333,0-76-0-3142700000000217,5,519.52,MG,A526,-44.40416666,2007-06-25
0-2000-0-81706,MONTE ALEGRE,N,0.0,Operante,Automatica,-2.0,0-76-0-1504802000000482,2,100.53,PA,A239,-54.07638888,2012-07-05
0-2000-0-86670,MONTE ALEGRE DE GOIAS,N,0.0,Operante,Automatica,-13.25361111,0-76-0-5213509000000211,10,552.0,GO,A032,-46.89027777,2007-06-06
0-2000-0-86870,MONTE VERDE,N,0.0,Operante,Automatica,-22.86166666,0-76-0-3110509000000071,5,1544.89,MG,A509,-46.04333333,2004-12-18
0-2000-0-81914,MONTEIRO,N,0.0,Operante,Automatica,-7.89444444,0-76-0-2509701000000241,3,606.39,PB,A334,-37.12472221,2007-08-21
0-2000-0-86740,MONTES CLAROS,N,0.0,Operante,Automatica,-16.68638888,0-76-0-3143302000000038,5,645.87,MG,A506,-43.84388888,2002-12-18
0-2000-0-81832,MORADA NOVA,N,0.0,Operante,Automatica,-5.0911111,0-76-0-2308708000000243,3,93.0,CE,A332,-38.36472222,2007-08-23
0-2000-0-86934,MORRETES,N,0.0,Operante,Automatica,-25.50888888,0-76-0-4116208000000317,8,50.31,PR,A873,-48.80861111,2008-03-12
0-2000-0-86755,MORRINHOS,N,0.0,Operante,Automatica,-17.745066,0-76-0-5213806000000006,10,751.09,GO,A003,-49.101698,2001-05-24
0-2000-0-81834,MOSSORO,N,0.0,Operante,Automatica,-4.90416666,0-76-0-2408003000000189,3,29.44,RN,A318,-37.36694443,2007-05-21
0-2000-0-86994,MOSTARDAS,N,0.0,Operante,Automatica,-31.24833333,0-76-0-4312500000000315,8,3.82,RS,A878,-50.90638888,2008-03-10
0-2000-0-86852,MURIAE,N,0.0,Operante,Automatica,-21.105,0-76-0-3148202000000102,5,282.79,MG,A517,-42.37583332,2006-08-29
0-2000-0-81839,NATAL,N,0.0,Pane,Automatica,-5.83722221,0-76-0-2408102000000060,3,47.46,RN,A304,-35.20805555,2003-02-23
0-2000-0-86768,NHUMIRIM,N,0.0,Operante,Automatica,-18.9886111,0-76-0-5003207000000092,7,102.26,MS,A717,-56.62277777,2006-08-01
0-2000-0-84823,NITEROI,N,0.0,Operante,Automatica,-22.86749999,0-76-0-3303302000000580,6,6.0,RJ,A627,-43.10194444,2018-07-12
0-2000-0-86600,NOSSA SENHORA DA GLORIA,N,0.0,Operante,Automatica,-10.20777777,0-76-0-2804508000000543,4,271.0,SE,A453,-37.43194443,2017-03-23
0-2000-0-86901,NOVA FATIMA,N,0.0,Pane,Automatica,-23.41527777,0-76-0-4117008000000174,8,664.31,PR,A842,-50.57777777,2007-02-07
0-2000-0-86889,NOVA FRIBURGO - SALINAS,N,0.0,Operante,Automatica,-22.33472221,0-76-0-3303401000000466,6,1070.0,RJ,A624,-42.67694443,2010-09-17
0-2000-0-86663,NOVA MARINGA,N,0.0,Operante,Automatica,-13.0386111,0-76-0-5108907000000338,9,334.36,MT,A928,-57.09222221,2008-04-15
0-2000-0-86706,NOVA PORTEIRINHA (JANAUBA),N,0.0,Operante,Automatica,-15.80277777,0-76-0-3135100000000533,5,532.0,MG,A563,-43.29694444,2016-11-18
0-2000-0-86919,NOVA TEBAS,N,0.0,Pane,Automatica,-24.43388888,0-76-0-4117271000000164,8,660.0,PR,A822,-51.95388888,2006-12-20
0-2000-0-86665,NOVA UBIRATA,N,0.0,Operante,Automatica,-13.41111111,0-76-0-5106240000000337,9,466.48,MT,A929,-54.75222222,2008-04-12
0-2000-0-81812,NOVO ARIPUANA,N,0.0,Operante,Automatica,-8.0911111,0-76-0-1303304000000594,1,45.0,AM,A144,-60.38055554,2019-07-17
0-2000-0-86938,NOVO HORIZONTE,N,0.0,Operante,Automatica,-26.40638888,0-76-0-4203600000000432,8,943.57,SC,A816,-52.85027777,2008-09-19
0-2000-0-81784,NOVO REPARTIMENTO,N,0.0,Pane,Automatica,-4.24388888,0-76-0-1505064000000410,2,100.76,PA,A235,-49.93944444,2008-07-22
0-2000-0-81675,OBIDOS,N,0.0,Operante,Automatica,-1.88083332,0-76-0-1505106000000481,2,89.64,PA,A232,-55.51972221,2012-07-04
0-2000-0-81869,OEIRAS,N,0.0,Operante,Automatica,-6.97416666,0-76-0-2207009000000409,3,154.03,PI,A354,-42.14694444,2008-07-21
0-2000-0-81609,OIAPOQUE,N,0.0,Operante,Automatica,3.81361111,0-76-0-1600501000000428,2,15.14,AP,A242,-51.8625,2008-09-10
0-2000-0-84819,OLIVEIRA,N,0.0,Operante,Automatica,-20.715,0-76-0-3145604000000560,5,1025.0,MG,A570,-44.86444444,2017-10-18
0-2000-0-81910,OURICURI,N,0.0,Operante,Automatica,-7.88583333,0-76-0-2609907000000462,3,457.85,PE,A366,-40.10277777,2010-08-10
0-2000-0-86866,OURINHOS,N,0.0,Operante,Automatica,-23.00055555,0-76-0-3534708000000101,7,500.0,SP,A716,-49.84333333,2006-08-28
0-2000-0-86823,OURO BRANCO,N,0.0,Operante,Automatica,-20.55666666,0-76-0-3145901000000091,5,1048.2,MG,A513,-43.75611111,2006-07-27
0-2000-0-81742,PACAJA,N,0.0,Pane,Automatica,-3.8436111,0-76-0-1505486000000292,2,89.02,PA,A210,-50.63805555,2008-02-26
0-2000-0-81957,PALMARES,N,0.0,Operante,Automatica,-8.66666666,0-76-0-2610004000000420,3,164.01,PE,A357,-35.56805554,2008-09-03
0-2000-0-86607,PALMAS,N,0.0,Operante,Automatica,-10.14777777,0-76-0-1721000000000070,10,267.0,TO,A009,-48.31444444,2004-12-16
0-2000-0-86953,PALMEIRA DAS MISSOES,N,0.0,Operante,Automatica,-27.92027777,0-76-0-4313706000000291,8,614.11,RS,A856,-53.31805554,2008-02-25
0-2000-0-81995,PALMEIRA DOS INDIOS,N,0.0,Operante,Automatica,-9.42027777,0-76-0-2700805000000224,3,278.01,AL,A327,-36.62027777,2007-07-10
0-2000-0-81994,PAO DE ACUCAR,N,0.0,Operante,Automatica,-9.74916666,0-76-0-2706406000000230,3,20.83,AL,A323,-37.43083332,2007-07-13
0-2000-0-86747,PARACATU,N,0.0,Operante,Automatica,-17.24444444,0-76-0-3147006000000576,5,705.0,MG,A571,-46.88166666,2018-03-15
0-2000-0-81745,PARAGOMINAS,N,0.0,Operante,Automatica,-2.90055555,0-76-0-1505502000000258,2,88.0,PA,A212,-47.49499999,2007-10-17
0-2000-0-86650,PARANA,N,0.0,Operante,Automatica,-12.615,0-76-0-1716208000000073,10,284.96,TO,A010,-47.87194443,2005-03-03
0-2000-0-86792,PARANAIBA,N,0.0,Operante,Automatica,-19.69555555,0-76-0-5006309000000137,7,408.06,MS,A710,-51.18166666,2006-11-09
0-2000-0-86862,PARANAPOEMA,N,0.0,Operante,Automatica,-22.65833333,0-76-0-4118303000000302,8,308.7,PR,A850,-52.13444444,2008-03-03
0-2000-0-86684,PARANATINGA,N,0.0,Operante,Automatica,-14.42138888,0-76-0-5106307000000160,9,476.91,MT,A915,-54.0361111,2006-12-18
0-2000-0-86733,PARANOA (COOPA-DF),N,0.0,Operante,Automatica,-16.012222,0-76-0-5300108000000537,10,1043.0,DF,A047,-47.557417,2017-02-06
0-2000-0-86913,PARATY,N,0.0,Operante,Automatica,-23.2236111,0-76-0-3303807000000141,6,3.0,RJ,A619,-44.72694443,2006-11-18
0-2000-0-86732,PARAUNA,N,0.0,Operante,Automatica,-16.9625,0-76-0-5216403000000324,10,678.74,GO,A027,-50.42555554,2008-03-28
0-2000-0-81703,PARINTINS,N,0.0,Operante,Automatica,-2.63916666,0-76-0-1303403000000332,1,18.72,AM,A123,-56.75611111,2008-04-10
0-2000-0-81752,PARNAIBA,N,0.0,Operante,Automatica,-3.08666666,0-76-0-2207702000000051,3,52.11,PI,A308,-41.78305554,2003-02-05
0-2000-0-81963,PARQUE ESTADUAL CHANDLESS,N,0.0,Pane,Automatica,-9.35833333,0-76-0-1200435000000413,1,184.51,AC,A102,-69.92638888,2008-08-04
0-2000-0-86873,PASSA QUATRO,N,0.0,Operante,Automatica,-22.39583333,0-76-0-3147600000000201,5,1017.1,MG,A529,-44.96194444,2007-05-29
0-2000-0-86963,PASSO FUNDO,N,0.0,Operante,Automatica,-28.226805,0-76-0-4314100000000147,8,680.67,RS,A839,-52.403582,2006-11-26
0-2000-0-86819,PASSOS,N,0.0,Operante,Automatica,-20.745237,0-76-0-3147907000000086,5,781.7,MG,A516,-46.633916,2006-07-15
0-2000-0-81913,PATOS,N,0.0,Pane,Automatica,-7.07972221,0-76-0-2510808000000235,3,263.66,PB,A321,-37.27277777,2007-07-20
0-2000-0-84811,PATOS DE MINAS,N,0.0,Operante,Automatica,-18.52055554,0-76-0-3148004000000545,5,950.0,MG,A562,-46.44055555,2017-05-11
0-2000-0-86778,PATROCINIO,N,0.0,Operante,Automatica,-18.996684,0-76-0-3148103000000097,5,978.11,MG,A523,-46.985935,2006-08-21
0-2000-0-81950,PAULISTANA,N,0.0,Operante,Automatica,-8.132288,0-76-0-2207801000000246,3,376.0,PI,A330,-41.142945,2007-08-30
0-2000-0-81941,PEDRO AFONSO,N,0.0,Operante,Automatica,-8.9686111,0-76-0-1716505000000170,10,189.71,TO,A020,-48.17722221,2007-01-22
0-2000-0-86649,PEIXE,N,0.0,Operante,Automatica,-12.01527777,0-76-0-1716604000000150,10,250.87,TO,A018,-48.54444444,2006-11-30
0-2000-0-81991,PETROLINA,N,0.0,Operante,Automatica,-9.38833333,0-76-0-2611101000000059,3,372.72,PE,A307,-40.52333332,2003-02-20
0-2000-0-86673,PIATA,N,0.0,Operante,Automatica,-13.155681,0-76-0-2924306000000358,4,1283.95,BA,A430,-41.774125,2008-05-02
0-2000-0-86876,PICO DO COUTO,N,0.0,Operante,Automatica,-22.46472222,0-76-0-3303906000000121,6,1777.0,RJ,A610,-43.29138888,2006-10-21
0-2000-0-81908,PICOS,N,0.0,Operante,Automatica,-7.0711111,0-76-0-2208007000000440,3,232.91,PI,A343,-41.40416666,2008-12-11
0-2000-0-86868,PIRACICABA,N,0.0,Operante,Automatica,-22.70305555,0-76-0-3538709000000110,7,566.46,SP,A726,-47.62333332,2006-09-25
0-2000-0-81980,PIRANHAS,N,0.0,Operante,Automatica,-9.62222221,0-76-0-2707107000000559,3,187.0,AL,A371,-37.76722221,2017-09-19
0-2000-0-86759,PIRAPORA,N,0.0,Operante,Automatica,-17.258064,0-76-0-3151206000000220,5,505.32,MG,A545,-44.835556,2007-07-03
0-2000-0-86756,PIRES DO RIO,N,0.0,Operante,Automatica,-17.30416666,0-76-0-5217401000000255,10,757.27,GO,A033,-48.28416666,2007-10-11
0-2000-0-81794,PIRIPIRI,N,0.0,Operante,Automatica,-4.2761111,0-76-0-2208403000000247,3,157.89,PI,A335,-41.79444444,2007-08-30
0-2000-0-86603,PIUM,N,0.0,Operante,Automatica,-10.47694443,0-76-0-1717503000000510,10,161.0,TO,A051,-49.62944443,2016-04-05
0-2000-0-81737,PLACAS,N,0.0,Operante,Automatica,-3.86416666,0-76-0-1505650000000287,2,100.45,PA,A211,-54.21638888,2008-02-13
0-2000-0-86926,PLANALTO,N,0.0,Operante,Automatica,-25.72194443,0-76-0-4119806000000265,8,399.1,PR,A855,-53.74805555,2007-11-06
0-2000-0-86614,POCO VERDE,N,0.0,Pane,Automatica,-10.73805555,0-76-0-2805505000000327,4,367.01,SE,A419,-38.10833333,2008-04-02
0-2000-0-86788,POMPEU,N,0.0,Operante,Automatica,-19.23249999,0-76-0-3152006000000504,5,705.0,MG,A560,-44.96416666,2015-08-20
0-2000-0-86857,PONTA PORA,N,0.0,Operante,Automatica,-22.5525,0-76-0-5006606000000012,7,668.0,MS,A703,-55.71638888,2001-09-06
0-2000-0-86702,PONTES E LACERDA,N,0.0,Operante,Automatica,-15.23444444,0-76-0-5106752000000285,9,272.53,MT,A937,-59.3461111,2008-01-29
0-2000-0-86669,PORANGATU,N,0.0,Operante,Automatica,-13.30944444,0-76-0-5218003000000581,10,365.0,GO,A005,-49.11749999,2001-06-03
0-2000-0-86988,PORTO ALEGRE - JARDIM BOTANICO,N,0.0,Operante,Automatica,-30.05361111,0-76-0-4314902000000005,8,41.18,RS,A801,-51.17472221,2000-09-21
,PORTO ALEGRE- BELEM NOVO,N,0.0,Operante,Automatica,-30.1861111,,8,3.3,RS,B807,-51.17805554,2022-12-07
0-2000-0-81671,PORTO DE MOZ,N,0.0,Operante,Automatica,-1.82194443,0-76-0-1505908000000599,2,19.0,PA,A245,-52.11166666,2022-04-06
0-2000-0-86704,PORTO ESTRELA,N,0.0,Operante,Automatica,-15.32472221,0-76-0-5106851000000371,9,147.75,MT,A935,-57.22583332,2008-05-29
0-2000-0-81637,PORTO GRANDE,N,0.0,Operante,Automatica,0.69416666,0-76-0-1600535000000431,2,84.8,AP,A244,-51.40388888,2008-09-16
0-2000-0-86833,PORTO MURTINHO,N,0.0,Pane,Automatica,-21.70583333,0-76-0-5006903000000122,7,78.56,MS,A723,-57.88666666,2006-10-23
0-2000-0-86745,PORTO SEGURO,N,0.0,Pane,Automatica,-16.38888888,0-76-0-2925303000000396,4,86.36,BA,A427,-39.18249999,2008-07-09
0-2000-0-81932,PORTO VELHO,N,0.0,Operante,Automatica,-8.7936111,0-76-0-1100205000000227,9,86.7,RO,A925,-63.84583333,2007-07-10
0-2000-0-81921,PORTO WALTER,N,0.0,Pane,Automatica,-8.26722221,0-76-0-1200393000000457,1,205.35,AC,A136,-72.74777777,2009-10-28
0-2000-0-86692,POSSE,N,0.0,Operante,Automatica,-14.08916666,0-76-0-5218300000000181,10,830.0,GO,A017,-46.36638888,2007-04-17
0-2000-0-86842,PRADOPOLIS,N,0.0,Operante,Automatica,-21.33833333,0-76-0-3518859000000346,7,540.41,SP,A747,-48.11388888,2008-04-21
0-2000-0-81717,PREGUICAS,N,0.0,Operante,Automatica,-2.59222221,0-76-0-2101707000000437,2,4.62,MA,A218,-42.7075,2008-11-21
0-2000-0-81699,PRESIDENTE FIGUEIREDO,N,0.0,Pane,Automatica,-2.05666666,0-76-0-1303536000000343,1,60.99,AM,A126,-60.02583332,2008-04-18
0-2000-0-86853,PRESIDENTE KENNEDY,N,0.0,Operante,Automatica,-21.10083333,0-76-0-3204302000000385,6,69.12,ES,A622,-41.03944444,2008-06-17
0-2000-0-86863,PRESIDENTE PRUDENTE,N,0.0,Operante,Automatica,-22.11999999,0-76-0-3541406000000050,7,431.92,SP,A707,-51.40861111,2003-02-03
0-2000-0-86700,PRIMAVERA DO LESTE,N,0.0,Operante,Automatica,-15.57999999,0-76-0-5107040000000566,9,680.0,MT,A923,-54.3811111,2017-10-25
,Paty do Alferes - Avelar,N,0.0,Operante,Automatica,-22.34722221,,6,508.0,RJ,A637,-43.41777777,2022-11-09
0-2000-0-86982,QUARAI,N,0.0,Operante,Automatica,-30.368578,0-76-0-4315305000000257,8,113.05,RS,A831,-56.437115,2007-10-16
0-2000-0-86612,QUEIMADAS,N,0.0,Operante,Automatica,-10.98472221,0-76-0-2925808000000366,4,310.11,BA,A436,-39.61694443,2008-05-22
0-2000-0-86647,QUERENCIA,N,0.0,Operante,Automatica,-12.60305555,0-76-0-5107065000000233,9,355.0,MT,A916,-52.1625,2007-07-17
0-2000-0-81799,QUIXADA,N,0.0,Operante,Automatica,-4.97888888,0-76-0-2311306000000577,3,193.0,CE,A369,-39.05722222,2018-03-19
0-2000-0-81831,QUIXERAMOBIM,N,0.0,Operante,Automatica,-5.17444443,0-76-0-2311405000000223,3,221.04,CE,A325,-39.28944444,2007-07-08
0-2000-0-86864,RANCHARIA,N,0.0,Operante,Automatica,-22.37277777,0-76-0-3542206000000103,7,398.75,SP,A718,-50.97472221,2006-08-31
0-2000-0-86959,RANCHO QUEIMADO,N,0.0,Operante,Automatica,-27.6786111,0-76-0-4214300000000515,8,881.0,SC,A870,-49.04194444,2016-05-30
0-2000-0-81958,RECIFE,N,0.0,Pane,Automatica,-8.05916666,0-76-0-2611606000000072,3,11.3,PE,A301,-34.95916666,2004-12-21
0-2000-0-81937,REDENCAO,N,0.0,Operante,Automatica,-8.04333333,0-76-0-1506139000000593,2,199.0,PA,A254,-50.00694444,2019-07-10
0-2000-0-86915,REGISTRO,N,0.0,Operante,Automatica,-24.53305554,0-76-0-3542602000000538,7,35.0,SP,A766,-47.86416666,2017-02-08
0-2000-0-81990,REMANSO,N,0.0,Operante,Automatica,-9.62555554,0-76-0-2926004000000321,4,397.4,BA,A423,-42.07722221,2008-03-25
0-2000-0-86874,RESENDE,N,0.0,Operante,Automatica,-22.45138888,0-76-0-3304201000000114,6,438.83,RJ,A609,-44.44499999,2006-09-28
0-2000-0-86640,RIBEIRA DO AMPARO,N,0.0,Operante,Automatica,-11.05861111,0-76-0-2926509000000582,4,182.0,BA,A458,-38.44416666,2018-09-19
0-2000-0-81965,RIO BRANCO,N,0.0,Operante,Automatica,-9.67972221,0-76-0-1200401000000397,1,163.0,AC,A104,-68.16527777,2008-07-10
0-2000-0-86836,RIO BRILHANTE,N,0.0,Operante,Automatica,-21.77499999,0-76-0-5007208000000391,7,324.31,MS,A743,-54.52805554,2008-06-25
0-2000-0-84803,RIO CLARO,N,0.0,Operante,Automatica,-22.653579,0-76-0-3304409000000518,6,516.0,RJ,A626,-44.040916,2016-06-02
0-2000-0-86887,RIO DE JANEIRO - FORTE DE COPACABANA,N,0.0,Operante,Automatica,-22.98833333,0-76-0-3304557000000187,6,25.59,RJ,A652,-43.19055555,2007-05-17
0-2000-0-84816,RIO DE JANEIRO - JACAREPAGUA,N,0.0,Operante,Automatica,-22.93999999,0-76-0-3304557000000553,6,20.0,RJ,A636,-43.40277777,2017-08-09
0-2000-0-86879,RIO DE JANEIRO - VILA MILITAR,N,0.0,Operante,Automatica,-22.86138888,0-76-0-3304557000000179,6,30.43,RJ,A621,-43.41138888,2007-04-12
0-2000-0-86914,RIO DE JANEIRO-MARAMBAIA,N,0.0,Operante,Automatica,-23.05027777,0-76-0-3304557000000024,6,12.0,RJ,A602,-43.59555555,2002-11-07
0-2000-0-86944,RIO DO CAMPO,N,0.0,Pane,Automatica,-26.93749999,0-76-0-4214508000000312,8,591.67,SC,A861,-50.14555555,2008-03-09
0-2000-0-86995,RIO GRANDE,N,0.0,Operante,Automatica,-32.07888888,0-76-0-4315602000000014,8,4.92,RS,A802,-52.16777777,2001-11-15
0-2000-0-86945,RIO NEGRINHO,N,0.0,Operante,Automatica,-26.2486111,0-76-0-4215000000000320,8,800.0,SC,A862,-49.57416666,2008-03-21
0-2000-0-86978,RIO PARDO,N,0.0,Operante,Automatica,-29.87222221,0-76-0-4315701000000115,8,106.99,RS,A813,-52.38194443,2006-09-29
0-2000-0-86721,RIO PARDO DE MINAS,N,0.0,Operante,Automatica,-15.72305554,0-76-0-3155603000000275,5,850.06,MG,A551,-42.43583333,2007-11-16
0-2000-0-81981,RIO SONO,N,0.0,Operante,Automatica,-9.793363,0-76-0-1718758000000523,10,291.0,TO,A050,-47.132732,2016-08-02
0-2000-0-81700,RIO URUBU,N,0.0,Operante,Automatica,-2.6336111,0-76-0-1303536000000390,1,112.84,AM,A125,-59.60055555,2008-06-25
0-2000-0-86753,RIO VERDE,N,0.0,Operante,Automatica,-17.78527777,0-76-0-5218805000000184,10,780.11,GO,A025,-50.965,2007-05-16
0-2000-0-81786,RONDON DO PARA,N,0.0,Operante,Automatica,-4.82749999,0-76-0-1506187000000342,2,203.0,PA,A214,-48.1736111,2008-04-16
0-2000-0-86728,RONDONOPOLIS,N,0.0,Pane,Automatica,-16.4625,0-76-0-5107602000000065,9,289.88,MT,A907,-54.58027777,2003-11-16
0-2000-0-86683,ROSARIO OESTE,N,0.0,Operante,Automatica,-14.82888888,0-76-0-5107701000000591,9,195.0,MT,A944,-56.44194444,2019-05-29
0-2000-0-81643,S. G. DA CACHOEIRA,N,0.0,Operante,Automatica,-0.125207,0-76-0-1303809000000476,1,79.67,AM,A134,-67.061246,2011-08-30
0-2000-0-86664,S.J. DO RIO CLARO,N,0.0,Operante,Automatica,-13.45388888,0-76-0-5107305000000062,9,339.59,MT,A903,-56.67722221,2003-02-24
0-2000-0-86795,SACRAMENTO,N,0.0,Operante,Automatica,-19.87527777,0-76-0-3156908000000095,5,913.12,MG,A525,-47.43416666,2006-08-18
0-2000-0-81949,SALGUEIRO,N,0.0,Operante,Automatica,-8.05805555,0-76-0-2612208000000558,3,447.0,PE,A370,-39.0961111,2017-09-14
0-2000-0-86741,SALINAS,N,0.0,Operante,Automatica,-16.16027777,0-76-0-3157005000000253,5,487.14,MG,A552,-42.31027777,2007-09-13
0-2000-0-81660,SALINOPOLIS,N,0.0,Operante,Automatica,-0.61888888,0-76-0-1506203000000383,2,23.18,PA,A215,-47.35666666,2008-06-13
0-2000-0-86703,SALTO DO CEU,N,0.0,Operante,Automatica,-15.12472221,0-76-0-5107750000000283,9,300.83,MT,A936,-58.12722221,2008-01-23
0-2000-0-86678,SALVADOR,N,0.0,Operante,Automatica,-13.005515,0-76-0-2927408000000004,4,47.56,BA,A401,-38.50576,2000-05-12
0-2000-0-86660,SALVADOR (RADIO FAROL),N,0.0,Operante,Automatica,-12.80833333,0-76-0-2927408000000572,4,31.0,BA,A456,-38.49583333,2018-03-09
0-2000-0-81876,SANTA CRUZ,N,0.0,Operante,Automatica,-6.22805554,0-76-0-2411205000000464,3,227.49,RN,A367,-36.02666666,2010-08-16
0-2000-0-81898,SANTA FE DO ARAGUAIA,N,0.0,Operante,Automatica,-7.124191,0-76-0-1718865000000522,10,171.0,TO,A048,-48.781267,2016-07-29
0-2000-0-86977,SANTA MARIA,N,0.0,Operante,Automatica,-29.72499999,0-76-0-4316907000000016,8,103.1,RS,A803,-53.72055554,2001-11-25
0-2000-0-81871,SANTA MARIA DAS BARREIRAS,N,0.0,Operante,Automatica,-8.72972221,0-76-0-1506583000000598,2,165.0,PA,A256,-49.85638888,2020-12-17
0-2000-0-84825,SANTA MARIA MADALENA,N,0.0,Operante,Automatica,-21.95055555,0-76-0-3304607000000584,6,517.0,RJ,A630,-42.01027777,2018-10-15
0-2000-0-86633,SANTA RITA DE CASSIA,N,0.0,Operante,Automatica,-11.00333333,0-76-0-2928406000000198,4,450.0,BA,A415,-44.53638888,2007-05-27
0-2000-0-86950,SANTA ROSA,N,0.0,Pane,Automatica,-27.89055555,0-76-0-4317202000000138,8,272.84,RS,A810,-54.47999999,2006-11-14
0-2000-0-86631,SANTA ROSA DO TOCANTINS,N,0.0,Operante,Automatica,-11.42888888,0-76-0-1718907000000500,10,306.0,TO,A052,-48.18499999,2015-08-13
0-2000-0-86804,SANTA TERESA,N,0.0,Pane,Automatica,-19.98833333,0-76-0-3204609000000240,6,975.92,ES,A613,-40.57944443,2007-08-08
0-2000-0-81982,SANTANA DO ARAGUAIA,N,0.0,Operante,Automatica,-9.34055555,0-76-0-1506708000000369,2,154.0,PA,A233,-50.35027777,2008-05-29
0-2000-0-86983,SANTANA DO LIVRAMENTO,N,0.0,Operante,Automatica,-30.75055555,0-76-0-4317103000000015,8,196.0,RS,A804,-55.40138888,2001-11-21
0-2000-0-81707,SANTAREM,N,0.0,Operante,Automatica,-2.5025,0-76-0-1506807000000506,2,137.0,PA,A250,-54.72027777,2015-09-01
0-2000-0-86976,SANTIAGO,N,0.0,Operante,Automatica,-29.191599,0-76-0-4317400000000441,8,390.03,RS,A833,-54.885653,2009-02-03
0-2000-0-86685,SANTO ANTONIO DO LESTE,N,0.0,Operante,Automatica,-14.92499999,0-76-0-1381098000000370,9,662.0,MT,A931,-53.88444444,2008-05-29
0-2000-0-86952,SANTO AUGUSTO,N,0.0,Operante,Automatica,-27.85444444,0-76-0-4317806000000017,8,489.67,RS,A805,-53.7911111,2001-12-04
0-2000-0-86960,SAO BORJA,N,0.0,Operante,Automatica,-28.65,0-76-0-4318002000000236,8,81.08,RS,A830,-56.01638888,2007-07-20
0-2000-0-86845,SAO CARLOS,N,0.0,Operante,Automatica,-21.980353,0-76-0-3548906000000104,7,859.29,SP,A711,-47.883927,2006-09-03
0-2000-0-86628,SAO FELIX  DO ARAGUAIA,N,0.0,Pane,Automatica,-11.61888888,0-76-0-5107859000000259,9,201.37,MT,A921,-50.72777777,2007-10-18
0-2000-0-81858,SAO FELIX DO XINGU,N,0.0,Pane,Automatica,-6.63972221,0-76-0-1507300000000532,2,211.0,PA,A216,-51.95694444,2016-11-14
0-2000-0-86984,SAO GABRIEL,N,0.0,Operante,Automatica,-30.34138888,0-76-0-4318309000000226,8,114.89,RS,A832,-54.31083333,2007-07-10
0-2000-0-86789,SAO GABRIEL DO OESTE,N,0.0,Operante,Automatica,-19.42027777,0-76-0-5007695000000159,7,646.0,MS,A732,-54.55305555,2006-12-17
0-2000-0-81774,SAO GONCALO,N,0.0,Operante,Automatica,-6.835777,0-76-0-2516201000000264,3,237.04,PB,A333,-38.311583,2007-11-05
0-2000-0-86849,SAO JOAO DEL REI,N,0.0,Operante,Automatica,-21.10638888,0-76-0-3162500000000078,5,929.88,MG,A514,-44.25083333,2006-06-08
0-2000-0-81848,SAO JOAO DO PIAUI,N,0.0,Operante,Automatica,-8.36444444,0-76-0-2210003000000244,3,231.0,PI,A331,-42.2525,2007-08-25
0-2000-0-86969,SAO JOAQUIM,N,0.0,Operante,Automatica,-28.27555554,0-76-0-4216503000000336,8,1400.06,SC,A815,-49.93472221,2008-04-11
0-2000-0-86621,SAO JOSE DO XINGU,N,0.0,Operante,Automatica,-10.48416666,0-76-0-5107354000000589,9,300.0,MT,A942,-52.37249999,2019-02-18
0-2000-0-86967,SAO JOSE DOS AUSENTES,N,0.0,Operante,Automatica,-28.7486111,0-76-0-4318622000000127,8,1228.59,RS,A829,-50.05777777,2006-10-25
0-2000-0-81715,SAO LUIS,N,0.0,Operante,Automatica,-2.52666666,0-76-0-2111300000000047,2,54.8,MA,A203,-44.21361111,2003-01-28
0-2000-0-81997,SAO LUIS DO QUITUNDE,N,0.0,Operante,Automatica,-9.28749999,0-76-0-2707404000000424,3,13.69,AL,A356,-35.56583333,2008-09-07
0-2000-0-86912,SAO LUIZ DO PARAITINGA,N,0.0,Operante,Automatica,-23.22833332,0-76-0-3535606000000262,7,862.3,SP,A740,-45.41694443,2007-10-31
0-2000-0-86961,SAO LUIZ GONZAGA,N,0.0,Operante,Automatica,-28.41722221,0-76-0-4318903000000237,8,245.5,RS,A852,-54.9625,2007-07-24
0-2000-0-86786,SAO MATEUS,N,0.0,Operante,Automatica,-18.6761111,0-76-0-3204906000000124,6,28.66,ES,A616,-39.86416666,2006-10-24
0-2000-0-86931,SAO MATEUS DO SUL,N,0.0,Operante,Automatica,-25.83555555,0-76-0-4125605000000472,8,780.21,PR,A874,-50.36888888,2011-04-16
0-2000-0-86906,SAO MIGUEL ARCANJO,N,0.0,Operante,Automatica,-23.89083333,0-76-0-3550209000000093,7,710.0,SP,A715,-47.99916666,2006-08-14
0-2000-0-86646,SAO MIGUEL DO ARAGUAIA,N,0.0,Operante,Automatica,-12.82055554,0-76-0-5220207000000550,10,210.0,GO,A031,-50.33583333,2017-06-28
0-2000-0-86937,SAO MIGUEL DO OESTE,N,0.0,Operante,Automatica,-26.78638888,0-76-0-4217204000000316,8,647.0,SC,A857,-53.51416666,2008-03-11
0-2000-0-86909,SAO PAULO - INTERLAGOS,N,0.0,Operante,Automatica,-23.724501,0-76-0-3550308000000573,7,771.0,SP,A771,-46.677501,2018-03-13
0-2000-0-86910,SAO PAULO - MIRANTE,N,0.0,Operante,Automatica,-23.49638888,0-76-0-3550308000000089,7,785.64,SP,A701,-46.61999999,2006-07-24
0-2000-0-81989,SAO RAIMUNDO NONATO,N,0.0,Operante,Automatica,-9.03305554,0-76-0-2210607000000294,3,385.0,PI,A345,-42.70111111,2008-02-26
0-2000-0-86739,SAO ROMAO,N,0.0,Operante,Automatica,-16.36277777,0-76-0-3164209000000218,5,490.29,MG,A547,-45.12388888,2007-06-29
0-2000-0-86811,SAO SEBASTIAO DO PARAISO,N,0.0,Operante,Automatica,-20.91,0-76-0-3164704000000501,5,845.0,MG,A561,-47.11416666,2015-08-16
0-2000-0-84828,SAO SIMAO,N,0.0,Operante,Automatica,-21.46111111,0-76-0-3550902000000592,7,620.0,SP,A770,-47.57944443,2019-07-02
0-2000-0-86773,SAO SIMAO,N,0.0,Operante,Automatica,-18.969142,0-76-0-5220405000000084,10,492.45,GO,A011,-50.633449,2006-07-14
0-2000-0-84802,SAO VICENTE DO SUL,N,0.0,Operante,Automatica,-29.70222222,0-76-0-4319802000000511,8,134.0,RS,A889,-54.69444444,2016-04-05
0-2000-0-86667,SAPEZAL,N,0.0,Operante,Automatica,-13.30388888,0-76-0-5107875000000563,9,105.0,MT,A911,-58.76333333,2017-10-19
0-2000-0-86885,SAQUAREMA - SAMPAIO CORREIA,N,0.0,Operante,Automatica,-22.8711111,0-76-0-3305505000000507,6,26.0,RJ,A667,-42.60888888,2015-09-01
0-2000-0-86611,SENHOR DO BONFIM,N,0.0,Operante,Automatica,-10.44305555,0-76-0-2930105000000322,4,532.09,BA,A428,-40.14833333,2008-03-26
0-2000-0-84801,SERAFINA CORREA,N,0.0,Operante,Automatica,-28.70472222,0-76-0-4320404000000509,8,485.29,RS,A894,-51.87083332,2016-03-31
0-2000-0-86878,SEROPEDICA-ECOLOGIA AGRICOLA,N,0.0,Operante,Automatica,-22.75777777,0-76-0-3305554000000002,6,35.0,RJ,A601,-43.68472221,2000-05-23
0-2000-0-86763,SERRA DOS AIMORES,N,0.0,Operante,Automatica,-17.79888888,0-76-0-3166709000000096,5,211.97,MG,A522,-40.25,2006-08-20
0-2000-0-81860,SERRA DOS CARAJAS,N,0.0,Pane,Automatica,-6.07749999,0-76-0-1505536000000418,2,707.0,PA,A230,-50.14222221,2008-09-02
0-2000-0-86641,SERRA NOVA DOURADA,N,0.0,Operante,Automatica,-11.98777777,0-76-0-5100359000000590,9,441.0,MT,A943,-51.4261111,2019-03-28
0-2000-0-81912,SERRA TALHADA,N,0.0,Operante,Automatica,-7.95416666,0-76-0-2613909000000395,3,499.02,PE,A350,-38.29499999,2008-07-08
0-2000-0-86637,SERRINHA,N,0.0,Operante,Automatica,-11.66472222,0-76-0-2930501000000361,4,337.79,BA,A441,-39.02305554,2008-05-08
0-2000-0-86790,SETE LAGOAS,N,0.0,Operante,Automatica,-19.45527777,0-76-0-3167202000000520,5,719.0,MG,A569,-44.17333332,2016-06-09
0-2000-0-86895,SETE QUEDAS,N,0.0,Operante,Automatica,-23.96694443,0-76-0-5007703000000376,7,398.4,MS,A751,-55.02416666,2008-06-02
0-2000-0-86809,SIDROLANDIA,N,0.0,Operante,Automatica,-20.98166666,0-76-0-5007901000000434,7,471.43,MS,A754,-54.97194443,2008-09-28
0-2000-0-86893,SILVA JARDIM,N,0.0,Operante,Automatica,-22.64583333,0-76-0-3305604000000505,6,19.0,RJ,A659,-42.41555555,2015-08-27
0-2000-0-86735,SILVANIA,N,0.0,Operante,Automatica,-16.67972221,0-76-0-5220603000000469,10,952.0,GO,A037,-48.61805554,2010-10-07
0-2000-0-86626,SINOP,N,0.0,Operante,Automatica,-11.98222221,0-76-0-5107909000000129,9,366.57,MT,A917,-55.56611111,2006-10-28
0-2000-0-81754,SOBRAL,N,0.0,Operante,Automatica,-3.74805555,0-76-0-2312908000000054,3,92.07,CE,A306,-40.34583333,2003-02-11
0-2000-0-86964,SOLEDADE,N,0.0,Operante,Automatica,-28.859211,0-76-0-4320800000000301,8,660.44,RS,A837,-52.542387,2008-02-29
0-2000-0-86769,SONORA,N,0.0,Operante,Automatica,-17.63527777,0-76-0-5007935000000489,7,495.25,MS,A761,-54.76055555,2012-11-29
0-2000-0-86907,SOROCABA,N,0.0,Operante,Automatica,-23.4261111,0-76-0-3552205000000098,7,609.33,SP,A713,-47.58555555,2006-08-21
0-2000-0-86645,SORRISO,N,0.0,Operante,Automatica,-12.555,0-76-0-5107925000000035,9,379.31,MT,A904,-55.72277777,2002-12-15
0-2000-0-81658,SOURE,N,0.0,Pane,Automatica,-0.72777777,0-76-0-1507904000000352,2,12.54,PA,A227,-48.51583333,2008-04-26
0-2000-0-81917,SURUBIM,N,0.0,Operante,Automatica,-7.83972221,0-76-0-2614501000000310,3,421.44,PE,A328,-35.80111111,2008-03-08
0-2000-0-86998,Santa Vitoria do Palmar - Barra do Chui,N,0.0,Operante,Automatica,-33.74222221,0-76-0-4305439000000309,8,7.41,RS,A899,-53.37222221,2008-03-07
0-2000-0-86682,TANGARA DA SERRA,N,0.0,Operante,Automatica,-14.65,0-76-0-5107958000000030,9,440.01,MT,A902,-57.43166666,2002-12-10
0-2000-0-81872,TAUA,N,0.0,Pane,Automatica,-6.01749999,0-76-0-2313302000000228,3,410.87,CE,A324,-40.28138888,2007-07-11
0-2000-0-86911,TAUBATE,N,0.0,Operante,Automatica,-23.04166666,0-76-0-3554102000000162,7,582.26,SP,A728,-45.52083332,2006-12-19
0-2000-0-86762,TEOFILO OTONI,N,0.0,Operante,Automatica,-17.89284,0-76-0-3168606000000099,5,467.17,MG,A527,-41.515423,2006-08-24
0-2000-0-81827,TERESINA,N,0.0,Operante,Automatica,-5.03472221,0-76-0-2211001000000069,3,75.23,PI,A312,-42.80138888,2004-11-23
0-2000-0-86888,TERESOPOLIS-PARQUE NACIONAL,N,0.0,Operante,Automatica,-22.4486111,0-76-0-3305802000000131,6,981.0,RJ,A618,-42.98694444,2006-10-31
0-2000-0-86987,TEUTONIA,N,0.0,Operante,Automatica,-29.44916666,0-76-0-4321451000000484,8,81.0,RS,A882,-51.82333332,2012-10-03
0-2000-0-81753,TIANGUA,N,0.0,Operante,Automatica,-3.73222221,0-76-0-2313401000000574,3,756.0,CE,A368,-41.01194444,2018-03-14
0-2000-0-86801,TIMOTEO,N,0.0,Operante,Automatica,-19.57388888,0-76-0-3168705000000075,5,493.42,MG,A511,-42.62249999,2006-02-21
0-2000-0-81711,TOME ACU,N,0.0,Operante,Automatica,-2.59249999,0-76-0-1508001000000256,2,42.95,PA,A213,-48.36055555,2007-10-13
0-2000-0-86981,TORRES,N,0.0,Operante,Automatica,-29.35027777,0-76-0-4321501000000077,8,8.44,RS,A808,-49.73333333,2006-05-31
0-2000-0-86990,TRAMANDAI,N,0.0,Operante,Automatica,-30.01027777,0-76-0-4321600000000311,8,4.56,RS,A834,-50.13583333,2008-03-08
0-2000-0-86813,TRES LAGOAS,N,0.0,Operante,Automatica,-20.79499999,0-76-0-5008305000000011,7,328.94,MS,A704,-51.71333333,2001-09-02
0-2000-0-86779,TRES MARIAS,N,0.0,Operante,Automatica,-18.200855,0-76-0-3169356000000100,5,931.01,MG,A528,-45.459836,2006-08-24
0-2000-0-84804,TRES RIOS,N,0.0,Operante,Automatica,-22.09833333,0-76-0-3306008000000519,6,295.0,RJ,A625,-43.20833333,2016-06-07
0-2000-0-81859,TUCUMA,N,0.0,Pane,Automatica,-6.74333333,0-76-0-1508084000000404,2,320.93,PA,A234,-51.14194444,2008-07-17
0-2000-0-81743,TUCURUI,N,0.0,Operante,Automatica,-3.82277777,0-76-0-1508100000000300,2,137.94,PA,A229,-49.67499999,2008-02-29
0-2000-0-84812,TUPA,N,0.0,Operante,Automatica,-21.927251,0-76-0-3555000000000546,7,498.0,SP,A768,-50.490251,2017-05-11
0-2000-0-84805,TUPANCIRETA,N,0.0,Operante,Automatica,-29.08944444,0-76-0-4322202000000526,8,462.0,RS,A886,-53.82666666,2016-08-10
0-2000-0-81687,TURIACU,N,0.0,Operante,Automatica,-1.66111111,0-76-0-2112407000000380,2,35.86,MA,A219,-45.37249999,2008-06-09
0-2000-0-84814,UBERABA,N,0.0,Operante,Automatica,-19.71,0-76-0-3170107000000549,5,778.0,MG,A568,-47.96194444,2017-05-18
0-2000-0-86776,UBERLANDIA,N,0.0,Operante,Automatica,-18.91694443,0-76-0-3170206000000036,5,874.77,MG,A507,-48.25555555,2002-12-17
0-2000-0-86724,UNA,N,0.0,Operante,Automatica,-15.28027777,0-76-0-2932507000000389,4,74.08,BA,A437,-39.09138888,2008-06-24
0-2000-0-86738,UNAI,N,0.0,Operante,Automatica,-16.55416666,0-76-0-3170404000000212,5,640.85,MG,A542,-46.88194443,2007-06-15
0-2000-0-81702,URUCARA,N,0.0,Operante,Automatica,-2.53472221,0-76-0-1304302000000341,1,18.49,AM,A124,-57.75805555,2008-04-16
0-2000-0-81905,URUCUI,N,0.0,Operante,Automatica,-7.44138888,0-76-0-2211209000000305,3,398.83,PI,A346,-44.34499999,2008-03-05
0-2000-0-86973,URUGUAIANA,N,0.0,Operante,Automatica,-29.83999999,0-76-0-4322400000000112,8,74.29,RS,A809,-57.08194443,2006-09-27
0-2000-0-86970,URUSSANGA,N,0.0,Operante,Automatica,-28.53249999,0-76-0-4219002000000368,8,40.56,SC,A814,-49.31527777,2008-05-28
0-2000-0-86966,VACARIA,N,0.0,Operante,Automatica,-28.51361111,0-76-0-4322509000000350,8,969.89,RS,A880,-50.88277777,2008-04-25
0-2000-0-86875,VALENCA,N,0.0,Operante,Automatica,-22.35805555,0-76-0-3306107000000111,6,370.0,RJ,A611,-43.69555555,2006-09-26
0-2000-0-86676,VALENCA,N,0.0,Operante,Automatica,-13.3436111,0-76-0-2932903000000451,4,93.12,BA,A444,-39.12666666,2009-06-28
0-2000-0-81870,VALENCA DO PIAUI,N,0.0,Operante,Automatica,-6.4236111,0-76-0-2211308000000444,3,372.0,PI,A363,-41.74888888,2009-04-17
0-2000-0-86838,VALPARAISO,N,0.0,Operante,Automatica,-21.31916666,0-76-0-3556305000000245,7,381.9,SP,A734,-50.93027777,2007-08-29
0-2000-0-86848,VARGINHA,N,0.0,Operante,Automatica,-21.56638888,0-76-0-3170701000000083,5,949.78,MG,A515,-45.40416666,2006-07-12
0-2000-0-84809,VENDA NOVA DO IMIGRANTE,N,0.0,Operante,Automatica,-20.38555555,0-76-0-3205069000000539,6,722.0,ES,A633,-41.18999999,2017-02-09
0-2000-0-86920,VENTANIA,N,0.0,Operante,Automatica,-24.28027777,0-76-0-4128534000000471,8,1093.41,PR,A872,-50.21027777,2011-04-14
0-2000-0-86824,VICOSA,N,0.0,Operante,Automatica,-20.762607,0-76-0-3171303000000074,5,697.64,MG,A510,-42.864013,2005-09-14
0-2000-0-86701,VILA BELA DA SANTISSIMA TRINDADE,N,0.0,Operante,Automatica,-15.06277777,0-76-0-5105507000000153,9,213.0,MT,A922,-59.87305554,2006-11-30
0-2000-0-86831,VILA VELHA,N,0.0,Operante,Automatica,-20.46694443,0-76-0-3205200000000540,6,25.0,ES,A634,-40.40388888,2017-02-14
0-2000-0-86642,VILHENA,N,0.0,Operante,Automatica,-12.73499999,0-76-0-1100304000000416,9,583.3,RO,A938,-60.15777777,2008-08-25
0-2000-0-86830,VITORIA,N,0.0,Operante,Automatica,-20.27083332,0-76-0-3205309000000130,6,9.0,ES,A612,-40.30583333,2006-10-30
0-2000-0-86697,VITORIA DA CONQUISTA,N,0.0,Operante,Automatica,-14.88638888,0-76-0-2933307000000204,4,879.38,BA,A414,-40.80138888,2007-05-31
0-2000-0-86940,XANXERE,N,0.0,Operante,Automatica,-26.938666,0-76-0-4219507000000318,8,878.74,SC,A858,-52.39809,2008-03-14
0-2000-0-81896,XINGUARA,N,0.0,Operante,Automatica,-7.11055555,0-76-0-1508407000000527,2,245.0,PA,A247,-49.9261111,2016-09-10
0-2000-0-81747,ZE DOCA,N,0.0,Operante,Automatica,-3.26916666,0-76-0-2114007000000596,2,45.5,MA,A255,-45.65111111,2019-09-17
0-2000-0-82989,AGUA BRANCA,N,0.0,Operante,Convencional,-9.26472222,0-76-0-2700102000W82989,3,603.42,AL,82989,-37.93805555,1928-05-04
0-2000-0-82353,ALTAMIRA,N,0.0,Operante,Convencional,-3.21416666,0-76-0-1500602000W82353,2,101.51,PA,82353,-52.21305555,1927-04-23
0-2000-0-83007,ALTO DA BOA VISTA,N,0.0,Operante,Convencional,-22.96583333,0-76-0-3304557000W83007,6,347.1,RJ,83007,-43.27916666,1966-05-31
0-2000-0-82590,APODI,N,0.0,Operante,Convencional,-5.62666666,0-76-0-2401008000W82590,3,131.37,RN,82590,-37.815,1962-12-17
0-2000-0-83442,ARACUAI,N,0.0,Operante,Convencional,-16.84888888,0-76-0-3103405000W83442,5,317.67,MG,83442,-42.06083333,1918-09-05
0-2000-0-83368,ARAGARCAS,N,0.0,Operante,Convencional,-15.9025,0-76-0-5201702000W83368,10,327.03,GO,83368,-52.24527777,1970-07-18
0-2000-0-82659,ARAGUAINA,N,0.0,Operante,Convencional,-7.10388888,0-76-0-1702109000W82659,10,231.85,TO,82659,-48.20138888,1984-08-20
0-2000-0-83579,ARAXA,N,0.0,Operante,Convencional,-19.60555555,0-76-0-3104007000W83579,5,1018.28,MG,83579,-46.94972221,1916-09-06
0-2000-0-82890,ARCO VERDE,N,0.0,Operante,Convencional,-8.4336111,0-76-0-2601201000W82890,3,683.91,PE,82890,-37.05527777,1973-01-31
0-2000-0-82696,AREIA,N,0.0,Operante,Convencional,-6.97555554,0-76-0-2501104000W82696,3,571.75,PB,82696,-35.71805554,1928-12-31
0-2000-0-83384,ARINOS,N,0.0,Operante,Convencional,-15.91527777,0-76-0-3104502000W83384,5,523.0,MG,83384,-46.10722222,1976-04-04
0-2000-0-82460,BACABAL,N,0.0,Operante,Convencional,-4.21805554,0-76-0-2101202000W82460,2,26.6,MA,82460,-44.77583332,1976-08-14
0-2000-0-83980,BAGE,N,0.0,Operante,Convencional,-31.30555555,0-76-0-4301602000W83980,8,245.66,RS,83980,-54.11944443,1911-12-31
0-2000-0-82768,BALSAS,N,0.0,Operante,Convencional,-7.52944443,0-76-0-2101400000W82768,2,263.48,MA,82768,-46.04638888,1976-08-13
0-2000-0-83179,BARRA,N,0.0,Operante,Convencional,-11.084858,0-76-0-2902708000W83179,4,407.5,BA,83179,-43.138998,1925-03-02
0-2000-0-82571,BARRA DO CORDA,N,0.0,Operante,Convencional,-5.50638888,0-76-0-2101608000W82571,2,154.17,MA,82571,-45.23722221,1912-01-13
0-2000-0-83236,BARREIRAS,N,0.0,Operante,Convencional,-12.15583333,0-76-0-2903201000W83236,4,447.51,BA,83236,-45.00833333,1923-12-31
0-2000-0-82191,BELEM,S,0.0,Operante,Convencional,-1.43583333,0-76-0-1501402000W82191,2,7.13,PA,82191,-48.43722221,1923-10-31
0-2000-0-83587,BELO HORIZONTE,S,0.0,Operante,Convencional,-19.93444444,0-76-0-3106200000W83587,5,915.47,MG,83587,-43.95222222,1910-03-02
0-2000-0-82246,BELTERRA,N,0.0,Operante,Convencional,-2.64222221,0-76-0-1501451000W82246,2,164.3,PA,82246,-54.94388888,1971-07-31
0-2000-0-82410,BENJAMIN CONSTANT,N,0.0,Operante,Convencional,-4.3786111,0-76-0-1300607000W82410,1,78.41,AM,82410,-70.02999999,1923-12-31
0-2000-0-82024,BOA VISTA,S,0.0,Operante,Convencional,2.82944443,0-76-0-1400100000W82024,1,84.18,RR,82024,-60.66194444,1923-01-01
0-2000-0-83919,BOM JESUS,N,0.0,Operante,Convencional,-28.66944443,0-76-0-4302303000W83919,8,1047.5,RS,83919,-50.44194444,1948-05-23
0-2000-0-83288,BOM JESUS DA LAPA,N,0.0,Operante,Convencional,-13.25111111,0-76-0-2903904000W83288,4,447.75,BA,83288,-43.40527777,1941-10-31
0-2000-0-82975,BOM JESUS DO PIAUI,N,0.0,Operante,Convencional,-9.07999999,0-76-0-2201903000W82975,3,288.0,PI,82975,-44.32777777,1971-04-18
0-2000-0-83377,BRASILIA,S,0.0,Operante,Convencional,-15.78972221,0-76-0-5300108000W83377,10,1161.42,DF,83377,-47.92583332,1961-09-11
0-2000-0-82188,BREVES,N,0.0,Operante,Convencional,-1.68027777,0-76-0-1501808000W82188,2,9.8,PA,82188,-50.47805554,1970-08-31
0-2000-0-83589,C. DO MATO DENTRO,N,0.0,Operante,Convencional,-19.02027777,0-76-0-3117504000W83589,5,663.02,MG,83589,-43.43388888,1925-06-29
0-2000-0-82886,CABROBO,N,0.0,Operante,Convencional,-8.50388888,0-76-0-2603009000W82886,3,342.78,PE,82886,-39.31527777,1927-10-16
0-2000-0-82263,CAMETA,N,0.0,Operante,Convencional,-2.23972221,0-76-0-1502103000W82263,2,9.93,PA,82263,-49.49972221,1970-04-30
0-2000-0-82795,CAMPINA GRANDE,N,0.0,Operante,Convencional,-7.22555554,0-76-0-2504009000W82795,3,546.27,PB,82795,-35.90472222,1910-12-31
0-2000-0-83698,CAMPOS,N,0.0,Operante,Convencional,-21.74249999,0-76-0-3301009000W83698,6,11.2,RJ,83698,-41.33277777,1911-06-16
0-2000-0-83270,CANARANA,N,0.0,Operante,Convencional,-13.47083332,0-76-0-5102702000W83270,9,430.0,MT,83270,-52.2711111,1987-08-03
0-2000-0-83639,CAPARAO,N,0.0,Operante,Convencional,-20.526119,0-76-0-3112109000W83639,5,836.25,MG,83639,-41.90913,1972-11-16
0-2000-0-82042,CARACARAI,N,0.0,Operante,Convencional,1.83249999,0-76-0-1400209000W82042,1,51.99,RR,82042,-61.12083332,1970-01-10
0-2000-0-83592,CARATINGA,N,0.0,Operante,Convencional,-19.73583333,0-76-0-3113404000W83592,5,609.56,MG,83592,-42.13722221,1924-03-14
0-2000-0-83498,CARAVELAS,N,0.0,Operante,Convencional,-17.73944444,0-76-0-2906907000W83498,4,6.05,BA,83498,-39.25861111,1930-04-30
0-2000-0-83485,CARBONITA,N,0.0,Operante,Convencional,-17.533008,0-76-0-3113503000W83485,5,765.37,MG,83485,-43.012091,1980-12-31
0-2000-0-82765,CAROLINA,N,0.0,Operante,Convencional,-7.33722221,0-76-0-2102804000W82765,2,182.94,MA,82765,-47.45972222,1912-12-31
0-2000-0-83526,CATALAO,N,0.0,Operante,Convencional,-18.17027777,0-76-0-5205109000W83526,10,857.98,GO,83526,-47.95805555,1912-12-31
0-2000-0-83942,CAXIAS DO SUL,N,0.0,Operante,Convencional,-29.1961111,0-76-0-4305108000W83942,8,750.16,RS,83942,-51.18638888,1912-04-11
0-2000-0-82596,CEARA MIRIM,N,0.0,Operante,Convencional,-5.65333333,0-76-0-2402600000W82596,3,62.2,RN,82596,-35.42583332,1967-05-31
0-2000-0-82382,CHAPADINHA,N,0.0,Operante,Convencional,-3.74277777,0-76-0-2103208000W82382,2,104.0,MA,82382,-43.35222222,1976-08-27
0-2000-0-83192,CIPO,N,0.0,Operante,Convencional,-11.10138888,0-76-0-2907905000W83192,4,143.53,BA,83192,-38.52416666,1934-12-31
0-2000-0-82326,CODAJAS,N,0.0,Operante,Convencional,-3.8411111,0-76-0-1301308000W82326,1,30.31,AM,82326,-62.05527777,1974-08-18
0-2000-0-82676,COLINAS,N,0.0,Operante,Convencional,-6.03305554,0-76-0-2103505000W82676,2,175.56,MA,82676,-44.23333333,1976-05-18
0-2000-0-82861,CONCEICAO DO ARAGUAIA,N,0.0,Operante,Convencional,-8.25916666,0-76-0-1502707000W82861,2,179.02,PA,82861,-49.26388888,1920-03-18
0-2000-0-83718,CORDEIRO,N,0.0,Operante,Convencional,-22.02222221,0-76-0-3301504000W83718,6,505.9,RJ,83718,-42.36444444,1971-07-15
0-2000-0-83286,CORRENTINA,N,0.0,Operante,Convencional,-13.33249999,0-76-0-2909307000W83286,4,551.69,BA,83286,-44.61749999,1975-08-10
0-2000-0-83912,CRUZ ALTA,N,0.0,Operante,Convencional,-28.6261111,0-76-0-4306106000W83912,8,475.52,RS,83912,-53.61388888,1912-02-01
0-2000-0-83222,CRUZ DAS ALMAS,N,0.0,Operante,Convencional,-12.67527777,0-76-0-2909802000W83222,4,219.69,BA,83222,-39.08972221,1957-12-31
0-2000-0-83361,CUIABA,S,0.0,Operante,Convencional,-15.61999999,0-76-0-5103403000W83361,9,157.7,MT,83361,-56.10888888,1910-12-31
0-2000-0-83309,DIAMANTINO,N,0.0,Operante,Convencional,-14.40611111,0-76-0-5103502000W83309,9,274.02,MT,83309,-56.44694444,1931-12-31
0-2000-0-82678,FLORIANO,N,0.0,Operante,Convencional,-6.76166666,0-76-0-2203909000W82678,3,126.6,PI,82678,-43.00333333,1968-01-20
0-2000-0-82212,FONTE BOA,N,0.0,Operante,Convencional,-2.51583333,0-76-0-1301605000W82212,1,59.34,AM,82212,-66.10083333,1924-12-31
0-2000-0-83379,FORMOSA,N,0.0,Operante,Convencional,-15.54916666,0-76-0-5208004000W83379,10,938.68,GO,83379,-47.33888888,1924-12-31
0-2000-0-83334,FORMOSO,N,0.0,Operante,Convencional,-14.949727,0-76-0-3126208000W83334,5,854.6,MG,83334,-46.235795,1976-04-02
0-2000-0-82397,FORTALEZA,S,0.0,Operante,Convencional,-3.81527777,0-76-0-2304400000W82397,3,29.89,CE,82397,-38.53777777,1919-10-26
0-2000-0-83630,FRANCA,N,0.0,Operante,Convencional,-20.58444444,0-76-0-3516200000W83630,7,1003.55,SP,83630,-47.38249999,1910-12-31
0-2000-0-83423,GOIANIA,S,0.0,Operante,Convencional,-16.67305554,0-76-0-5208707000W83423,10,748.53,GO,83423,-49.26388888,1937-07-10
0-2000-0-83446,GUARATINGA,N,0.0,Operante,Convencional,-16.58081,0-76-0-2911808000W83446,4,197.88,BA,83446,-39.783182,1973-09-09
0-2000-0-83114,IGUABA GRANDE,N,0.0,Operante,Convencional,-22.84694444,0-76-0-3301876000W83114,6,5.6,RJ,83114,-42.18555555,1969-12-31
0-2000-0-82564,IMPERATRIZ,N,0.0,Operante,Convencional,-5.53638888,0-76-0-2105302000W82564,2,126.33,MA,82564,-47.47888888,1912-12-31
0-2000-0-83522,IPAMERI,N,0.0,Operante,Convencional,-17.72444443,0-76-0-5210109000W83522,10,778.14,GO,83522,-48.17194443,1977-02-09
0-2000-0-83836,IRATI,N,0.0,Operante,Convencional,-25.50277777,0-76-0-4110706000W83836,8,881.69,PR,83836,-50.63749999,1966-09-23
0-2000-0-82336,ITACOATIARA,N,0.0,Operante,Convencional,-3.13694444,0-76-0-1301902000W82336,1,19.16,AM,82336,-58.44277777,1926-12-31
0-2000-0-82445,ITAITUBA,N,0.0,Operante,Convencional,-4.27694443,0-76-0-1503606000W82445,2,24.5,PA,82445,-55.99305555,1927-12-31
0-2000-0-83488,ITAMARANDIBA,N,0.0,Operante,Convencional,-17.85972222,0-76-0-3132503000W83488,5,919.37,MG,83488,-42.85277777,1925-03-26
0-2000-0-83695,ITAPERUNA,N,0.0,Operante,Convencional,-21.20444444,0-76-0-3302205000W83695,6,123.6,RJ,83695,-41.90555555,1921-12-31
0-2000-0-83386,JANUARIA,N,0.0,Operante,Convencional,-15.44805555,0-76-0-3135209000W83386,5,480.0,MG,83386,-44.36638888,1912-06-18
0-2000-0-83464,JATAI,N,0.0,Operante,Convencional,-17.9236111,0-76-0-5211909000W83464,10,669.84,GO,83464,-51.71749999,1978-11-23
0-2000-0-82798,JOAO PESSOA,S,0.0,Operante,Convencional,-7.09527777,0-76-0-2507507000W82798,3,9.67,PB,82798,-34.8486111,1911-12-31
0-2000-0-83692,JUIZ DE FORA,N,0.0,Operante,Convencional,-21.76999999,0-76-0-3136702000W83692,5,936.9,MG,83692,-43.36444444,1909-12-31
0-2000-0-83452,JURAMENTO,N,0.0,Operante,Convencional,-16.775057,0-76-0-3136801000W83452,5,655.59,MG,83452,-43.667085,1986-11-13
0-2000-0-82723,LABREA,N,0.0,Operante,Convencional,-7.26138888,0-76-0-1302405000W82723,1,62.23,AM,82723,-64.78999999,1972-11-29
0-2000-0-83916,LAGOA VERMELHA,N,0.0,Operante,Convencional,-28.22249999,0-76-0-4311304000W83916,8,833.73,RS,83916,-51.51277777,1914-05-31
0-2000-0-83687,LAVRAS,N,0.0,Operante,Convencional,-21.2261111,0-76-0-3138203000W83687,5,916.19,MG,83687,-44.97972221,1911-02-17
0-2000-0-83242,LENCOIS,N,0.0,Operante,Convencional,-12.55777777,0-76-0-2919306000W83242,4,438.09,BA,83242,-41.38888888,1931-08-31
0-2000-0-82296,LUZILANDIA(LAG.DO PIAUI),N,0.0,Operante,Convencional,-3.46972221,0-76-0-2205805000W82296,3,44.13,PI,82296,-42.26805554,1972-05-17
0-2000-0-82098,MACAPA,S,0.0,Operante,Convencional,-0.04499999,0-76-0-1600303000W82098,2,12.8,AP,82098,-51.11,1924-12-31
0-2000-0-82331,MANAUS,S,0.0,Operante,Convencional,-3.10333333,0-76-0-1302603000W82331,1,61.25,AM,82331,-60.01638888,1909-12-31
0-2000-0-82562,MARABA,N,0.0,Operante,Convencional,-5.36611111,0-76-0-1504208000W82562,2,101.66,PA,82562,-49.12527777,1951-12-31
0-2000-0-83767,MARINGA,N,0.0,Operante,Convencional,-23.4,0-76-0-4115200000W83767,8,542.0,PR,83767,-51.91666666,1953-11-30
0-2000-0-82181,MONTE ALEGRE,N,0.0,Operante,Convencional,-2.0,0-76-0-1504802000W82181,2,100.52,PA,82181,-54.07638888,1974-03-08
0-2000-0-82792,MONTEIRO,N,0.0,Operante,Convencional,-7.89444444,0-76-0-2509701000W82792,3,606.41,PB,82792,-37.12472221,1940-01-13
0-2000-0-83437,MONTES CLAROS,N,0.0,Operante,Convencional,-16.68638888,0-76-0-3143302000W83437,5,645.87,MG,83437,-43.84388888,1911-12-31
0-2000-0-82588,MORADA NOVA,N,0.0,Operante,Convencional,-5.13666666,0-76-0-2308708000W82588,3,43.62,CE,82588,-38.35666666,1962-09-30
0-2000-0-83184,MORRO DO CHAPEU,N,0.0,Operante,Convencional,-11.54749999,0-76-0-2921708000W83184,4,1001.66,BA,83184,-41.15111111,1913-01-12
0-2000-0-83013,MUNIZ FREIRE,N,0.0,Operante,Convencional,-20.46583333,0-76-0-3203700000W83013,6,530.0,ES,83013,-41.41194444,1976-10-31
0-2000-0-82598,NATAL,S,0.0,Operante,Convencional,-5.83722221,0-76-0-2408102000W82598,3,47.68,RN,82598,-35.20777777,1910-12-31
0-2000-0-83319,NOVA XAV.(XAVANTINA),N,0.0,Operante,Convencional,-14.697917,0-76-0-5106257000W83319,9,305.33,MT,83319,-52.350226,1987-08-04
0-2000-0-82753,OURICURI,N,0.0,Operante,Convencional,-7.87944443,0-76-0-2609907000W82753,3,462.01,PE,82753,-40.09194444,1975-09-15
0-2000-0-83364,PADRE RICARDO REMETTER,N,0.0,Operante,Convencional,-15.7761111,0-76-0-5107800000W83364,9,140.0,MT,83364,-56.07194443,1985-12-31
0-2000-0-83033,PALMAS,S,0.0,Operante,Convencional,-10.14777777,0-76-0-1721000000W83033,10,267.0,TO,83033,-48.31444444,1993-10-07
0-2000-0-82992,PALMEIRA DOS INDIOS,N,0.0,Operante,Convencional,-9.42027777,0-76-0-2700805000W82992,3,277.98,AL,82992,-36.62027777,1927-12-31
0-2000-0-82990,PAO DE ACUCAR,N,0.0,Operante,Convencional,-9.74916666,0-76-0-2706406000W82990,3,20.86,AL,82990,-37.43083332,1927-03-13
0-2000-0-83565,PARANAIBA,N,0.0,Operante,Convencional,-19.66361111,0-76-0-5006309000W83565,7,429.62,MS,83565,-51.19138888,1971-07-06
0-2000-0-83737,PASSA QUATRO,N,0.0,Operante,Convencional,-22.38277777,0-76-0-3147600000W83737,5,919.55,MG,83737,-44.96694443,1912-07-28
0-2000-0-83914,PASSO FUNDO,N,0.0,Operante,Convencional,-28.2286111,0-76-0-4314100000W83914,8,684.05,RS,83914,-52.41194444,1912-07-31
0-2000-0-82791,PATOS,N,0.0,Operante,Convencional,-7.05361111,0-76-0-2510808000W82791,3,251.65,PB,82791,-37.27388888,1975-10-16
0-2000-0-82882,PAULISTANA,N,0.0,Operante,Convencional,-8.13222221,0-76-0-2207801000W82882,3,376.0,PI,82882,-41.14305555,1975-09-21
0-2000-0-83393,PEDRA AZUL,N,0.0,Operante,Convencional,-16.00944444,0-76-0-3148707000W83393,5,647.97,MG,83393,-41.2811111,1918-09-30
0-2000-0-82863,PEDRO AFONSO,N,0.0,Operante,Convencional,-8.9686111,0-76-0-1716505000W82863,10,189.53,TO,82863,-48.17722221,1977-03-03
0-2000-0-83228,PEIXE,N,0.0,Operante,Convencional,-12.01527777,0-76-0-1716604000W83228,10,252.24,TO,83228,-48.54499999,1975-04-30
0-2000-0-83985,PELOTAS,N,0.0,Operante,Convencional,-31.78333333,0-76-0-4314407000W83985,8,13.0,RS,83985,-52.41666666,1925-12-31
0-2000-0-82983,PETROLINA,N,0.0,Operante,Convencional,-9.3886111,0-76-0-2611101000W82983,3,372.54,PE,82983,-40.52333332,1940-12-31
0-2000-0-82780,PICOS,N,0.0,Operante,Convencional,-7.08083332,0-76-0-2208007000W82780,3,210.07,PI,82780,-41.43499999,1923-10-31
0-2000-0-83376,PIRENOPOLIS,N,0.0,Operante,Convencional,-15.85472222,0-76-0-5217302000W83376,10,766.92,GO,83376,-48.96611111,1977-02-16
0-2000-0-82480,PIRIPIRI,N,0.0,Operante,Convencional,-4.2761111,0-76-0-2208403000W82480,3,157.89,PI,82480,-41.79444444,1976-03-08
0-2000-0-83967,PORTO ALEGRE,S,0.0,Operante,Convencional,-30.05361111,0-76-0-4314902000W83967,8,41.18,RS,83967,-51.17472221,1909-12-08
0-2000-0-82184,PORTO DE MOZ,N,0.0,Operante,Convencional,-1.751055,0-76-0-1505908000W82184,2,13.08,PA,82184,-52.236186,1928-04-22
0-2000-0-82996,PORTO DE PEDRAS,N,0.0,Operante,Convencional,-9.162012,0-76-0-2707404000W82996,3,42.21,AL,82996,-35.299881,1927-03-13
0-2000-0-83064,PORTO NACIONAL,N,0.0,Operante,Convencional,-10.71083333,0-76-0-1718204000W83064,10,243.28,TO,83064,-48.40638888,1914-12-31
0-2000-0-83332,POSSE,N,0.0,Operante,Convencional,-14.08916666,0-76-0-5218300000W83332,10,830.35,GO,83332,-46.36666666,1975-08-03
0-2000-0-83097,PROPRIA,N,0.0,Operante,Convencional,-10.21388888,0-76-0-2805703000W83097,4,18.46,SE,83097,-36.84222221,1925-05-09
0-2000-0-82586,QUIXERAMOBIM,N,0.0,Operante,Convencional,-5.17305554,0-76-0-2311405000W82586,3,227.33,CE,82586,-39.28722221,1895-12-31
0-2000-0-83738,RESENDE,N,0.0,Operante,Convencional,-22.45111111,0-76-0-3304201000W83738,6,439.9,RJ,83738,-44.44472221,1944-05-21
0-2000-0-83470,RIO VERDE,N,0.0,Operante,Convencional,-17.78527777,0-76-0-5218805000W83470,10,780.04,GO,83470,-50.96472222,1970-12-31
0-2000-0-83441,SALINAS,N,0.0,Operante,Convencional,-16.154862,0-76-0-3157005000W83441,5,476.07,MG,83441,-42.284921,1925-03-04
0-2000-0-83229,SALVADOR (ONDINA),S,0.0,Operante,Convencional,-13.00583333,0-76-0-2927408000W83229,4,47.35,BA,83229,-38.50583333,1902-12-31
0-2000-0-83936,SANTA MARIA,N,0.0,Operante,Convencional,-29.72472221,0-76-0-4316907000W83936,8,103.1,RS,83936,-53.72055554,1911-12-31
0-2000-0-83696,SANTA MARIA MADALENA,N,0.0,Operante,Convencional,-21.96805554,0-76-0-3304607000W83696,6,640.0,RJ,83696,-42.00305555,1921-12-20
0-2000-0-83997,SANTA VITORIA DO PALMAR,N,0.0,Operante,Convencional,-33.53166666,0-76-0-4317301000W83997,8,24.01,RS,83997,-53.35027777,1912-09-30
0-2000-0-83726,SAO CARLOS,N,0.0,Operante,Convencional,-21.98027777,0-76-0-3548906000W83726,7,859.77,SP,83726,-47.88388888,1939-09-23
0-2000-0-82106,SAO GABRIEL DA CACHOEIRA(UAUPES),N,0.0,Operante,Convencional,-0.12527777,0-76-0-1303809000W82106,1,79.71,AM,82106,-67.06111111,1920-03-31
0-2000-0-82689,SAO GONCALO,N,0.0,Operante,Convencional,-6.83583333,0-76-0-2516201000W82689,3,237.04,PB,82689,-38.31166666,1938-10-07
0-2000-0-82879,SAO JOAO DO PIAUI,N,0.0,Operante,Convencional,-8.365,0-76-0-2210003000W82879,3,237.02,PI,82879,-42.25027777,1975-09-29
0-2000-0-83736,SAO LOURENCO,N,0.0,Operante,Convencional,-22.12638888,0-76-0-3163706000W83736,5,930.65,MG,83736,-45.04333333,1922-02-03
0-2000-0-82280,SAO LUIS,S,0.0,Operante,Convencional,-2.52666666,0-76-0-2111300000W82280,2,32.58,MA,82280,-44.21361111,1924-11-17
0-2000-0-83781,SAO PAULO(MIR.de SANTANA),S,0.0,Operante,Convencional,-23.49638888,0-76-0-3550308000W83781,7,785.16,SP,83781,-46.61999999,1945-11-30
0-2000-0-83669,SAO SIMAO,N,0.0,Operante,Convencional,-21.46111111,0-76-0-3550902000W83669,7,620.02,SP,83669,-47.57944443,1919-12-31
0-2000-0-83363,SAO VICENTE,N,0.0,Operante,Convencional,-15.82305554,0-76-0-5103403000W83363,9,786.99,MT,83363,-55.41888888,1985-11-07
0-2000-0-82690,SERIDO (CAICO),N,0.0,Operante,Convencional,-6.46749999,0-76-0-2402006000W82690,3,171.26,RN,82690,-37.08499999,1995-03-13
0-2000-0-83851,SOROCABA,N,0.0,Operante,Convencional,-23.47999999,0-76-0-3552205000W83851,7,597.58,SP,83851,-47.42666666,1927-12-31
0-2000-0-82797,SURUBIM,N,0.0,Operante,Convencional,-7.839628,0-76-0-2614501000W82797,3,421.44,PE,82797,-35.801056,1929-09-30
0-2000-0-83235,TAGUATINGA,N,0.0,Operante,Convencional,-12.40222222,0-76-0-1720903000W83235,10,604.88,TO,83235,-46.43833333,1915-12-21
0-2000-0-82807,TARAUACA,N,0.0,Operante,Convencional,-8.16027777,0-76-0-1200609000W82807,1,172.27,AC,82807,-70.7686111,1966-06-05
0-2000-0-82317,TEFE,N,0.0,Operante,Convencional,-3.38027777,0-76-0-1304203000W82317,1,56.0,AM,82317,-64.72527777,1929-01-03
0-2000-0-82578,TERESINA,S,0.0,Operante,Convencional,-5.03472221,0-76-0-2211001000W82578,3,75.73,PI,82578,-42.80138888,1911-03-20
0-2000-0-83744,TERESOPOLIS,N,0.0,Operante,Convencional,-22.41722221,0-76-0-3305802000W83744,6,874.2,RJ,83744,-42.97222221,1912-12-31
0-2000-0-82145,TRACUATEUA,N,0.0,Operante,Convencional,-1.06361111,0-76-0-1508035000W82145,2,24.68,PA,82145,-46.86527777,1972-09-07
0-2000-0-82361,TUCURUI,N,0.0,Operante,Convencional,-3.76,0-76-0-1508100000W82361,2,27.83,PA,82361,-49.66666666,1969-12-31
0-2000-0-82198,TURIACU,N,0.0,Operante,Convencional,-1.66138888,0-76-0-2112407000W82198,2,34.48,MA,82198,-45.37194443,1976-07-28
0-2000-0-83428,UNAI,N,0.0,Operante,Convencional,-16.36638888,0-76-0-3170404000W83428,5,595.59,MG,83428,-46.88944444,1976-04-06
0-2000-0-83648,VITORIA,S,0.0,Operante,Convencional,-20.31583333,0-76-0-3205309000W83648,6,36.2,ES,83648,-40.31694443,1923-11-19
0-2000-0-83344,VITORIA DA CONQUISTA,N,0.0,Operante,Convencional,-14.88638888,0-76-0-2933307000W83344,4,879.47,BA,83344,-40.80138888,1935-12-31
0-2000-0-82376,ZE DOCA,N,0.0,Operante,Convencional,-3.26916666,0-76-0-2114007000W82376,2,46.71,MA,82376,-45.65111111,1970-08-24
